[
  {
    "id": 776808,
    "name": "Abramów",
    "coord": {
      "lat": 51.45647,
      "lon": 22.31521
    }
  },
  {
    "id": 776788,
    "name": "Adamów",
    "coord": {
      "lat": 51.743351,
      "lon": 22.264139
    }
  },
  {
    "id": 776780,
    "name": "Adamówka",
    "coord": {
      "lat": 50.258572,
      "lon": 22.69595
    }
  },
  {
    "id": 776759,
    "name": "Albigowa",
    "coord": {
      "lat": 50.014252,
      "lon": 22.22414
    }
  },
  {
    "id": 776755,
    "name": "Aleksandrów (lubelskie)",
    "coord": {
      "lat": 50.466301,
      "lon": 22.89225
    }
  },
  {
    "id": 3104146,
    "name": "Aleksandrów (łódzkie)",
    "coord": {
      "lat": 51.271259,
      "lon": 19.990049
    }
  },
  {
    "id": 7532648,
    "name": "Aleksandrów Kujawski",
    "coord": {
      "lat": 52.876301,
      "lon": 18.700399
    }
  },
  {
    "id": 7533560,
    "name": "Aleksandrów Łódzki",
    "coord": {
      "lat": 51.816002,
      "lon": 19.303801
    }
  },
  {
    "id": 3104127,
    "name": "Alwernia",
    "coord": {
      "lat": 50.060558,
      "lon": 19.53953
    }
  },
  {
    "id": 3104123,
    "name": "Ameryka",
    "coord": {
      "lat": 50.166672,
      "lon": 18.683331
    }
  },
  {
    "id": 3104116,
    "name": "Andrespol",
    "coord": {
      "lat": 51.727829,
      "lon": 19.64175
    }
  },
  {
    "id": 7533538,
    "name": "Andrychów",
    "coord": {
      "lat": 49.853802,
      "lon": 19.339199
    }
  },
  {
    "id": 776677,
    "name": "Annopol",
    "coord": {
      "lat": 50.885509,
      "lon": 21.856779
    }
  },
  {
    "id": 7531271,
    "name": "Augustów",
    "coord": {
      "lat": 53.83971,
      "lon": 22.9492
    }
  },
  {
    "id": 3104022,
    "name": "Babiak",
    "coord": {
      "lat": 52.345299,
      "lon": 18.66663
    }
  },
  {
    "id": 776574,
    "name": "Babica",
    "coord": {
      "lat": 49.934761,
      "lon": 21.87035
    }
  },
  {
    "id": 3104019,
    "name": "Babice",
    "coord": {
      "lat": 50.055649,
      "lon": 19.199551
    }
  },
  {
    "id": 7533257,
    "name": "Babimost",
    "coord": {
      "lat": 52.1647,
      "lon": 15.8285
    }
  },
  {
    "id": 3103989,
    "name": "Baborów",
    "coord": {
      "lat": 50.1576,
      "lon": 17.98513
    }
  },
  {
    "id": 776553,
    "name": "Baboszewo",
    "coord": {
      "lat": 52.680698,
      "lon": 20.25527
    }
  },
  {
    "id": 776551,
    "name": "Babsk",
    "coord": {
      "lat": 51.839279,
      "lon": 20.35046
    }
  },
  {
    "id": 3103971,
    "name": "Bachowice",
    "coord": {
      "lat": 49.958118,
      "lon": 19.49369
    }
  },
  {
    "id": 3103896,
    "name": "Balice",
    "coord": {
      "lat": 50.08799,
      "lon": 19.794621
    }
  },
  {
    "id": 776458,
    "name": "Baligród",
    "coord": {
      "lat": 49.330898,
      "lon": 22.28566
    }
  },
  {
    "id": 3103892,
    "name": "Balin",
    "coord": {
      "lat": 50.167992,
      "lon": 19.3834
    }
  },
  {
    "id": 3103884,
    "name": "Banie",
    "coord": {
      "lat": 53.100311,
      "lon": 14.66228
    }
  },
  {
    "id": 776441,
    "name": "Banie Mazurskie",
    "coord": {
      "lat": 54.24662,
      "lon": 22.036169
    }
  },
  {
    "id": 3103882,
    "name": "Banino",
    "coord": {
      "lat": 54.392151,
      "lon": 18.406219
    }
  },
  {
    "id": 776440,
    "name": "Baniocha",
    "coord": {
      "lat": 52.016529,
      "lon": 21.139839
    }
  },
  {
    "id": 776407,
    "name": "Baranowo (mazowieckie)",
    "coord": {
      "lat": 53.175541,
      "lon": 21.298031
    }
  },
  {
    "id": 7535568,
    "name": "Baranowo (wielkopolskie)",
    "coord": {
      "lat": 52.435249,
      "lon": 16.78631
    }
  },
  {
    "id": 776415,
    "name": "Baranów (lubelskie)",
    "coord": {
      "lat": 51.557861,
      "lon": 22.13625
    }
  },
  {
    "id": 776417,
    "name": "Baranów (świętokrzyskie)",
    "coord": {
      "lat": 50.295702,
      "lon": 20.354016
    }
  },
  {
    "id": 7532280,
    "name": "Baranów (wielkopolskie)",
    "coord": {
      "lat": 51.234299,
      "lon": 17.999901
    }
  },
  {
    "id": 776403,
    "name": "Baranów Sandomierski",
    "coord": {
      "lat": 50.499119,
      "lon": 21.54204
    }
  },
  {
    "id": 776393,
    "name": "Barciany",
    "coord": {
      "lat": 54.219929,
      "lon": 21.35347
    }
  },
  {
    "id": 3103856,
    "name": "Barcin",
    "coord": {
      "lat": 52.86607,
      "lon": 17.946251
    }
  },
  {
    "id": 776384,
    "name": "Barczewo",
    "coord": {
      "lat": 53.830551,
      "lon": 20.69112
    }
  },
  {
    "id": 3103847,
    "name": "Bardo",
    "coord": {
      "lat": 50.50589,
      "lon": 16.739861
    }
  },
  {
    "id": 3103824,
    "name": "Barlinek",
    "coord": {
      "lat": 52.99464,
      "lon": 15.21864
    }
  },
  {
    "id": 7535367,
    "name": "Bartniczka",
    "coord": {
      "lat": 53.247761,
      "lon": 19.60433
    }
  },
  {
    "id": 7531673,
    "name": "Bartoszyce",
    "coord": {
      "lat": 54.253399,
      "lon": 20.810301
    }
  },
  {
    "id": 3103785,
    "name": "Baruchowo",
    "coord": {
      "lat": 52.494122,
      "lon": 19.264959
    }
  },
  {
    "id": 3103782,
    "name": "Barwałd Górny",
    "coord": {
      "lat": 49.86211,
      "lon": 19.61746
    }
  },
  {
    "id": 3103781,
    "name": "Barwałd Średni",
    "coord": {
      "lat": 49.866322,
      "lon": 19.593599
    }
  },
  {
    "id": 3103780,
    "name": "Barwice",
    "coord": {
      "lat": 53.7449,
      "lon": 16.355301
    }
  },
  {
    "id": 776310,
    "name": "Batorz",
    "coord": {
      "lat": 50.850498,
      "lon": 22.49313
    }
  },
  {
    "id": 776531,
    "name": "Baćkowice",
    "coord": {
      "lat": 50.791939,
      "lon": 21.232109
    }
  },
  {
    "id": 7531229,
    "name": "Bałtów",
    "coord": {
      "lat": 51.018021,
      "lon": 21.5411
    }
  },
  {
    "id": 3103760,
    "name": "Bażanowice",
    "coord": {
      "lat": 49.737911,
      "lon": 18.703449
    }
  },
  {
    "id": 3103736,
    "name": "Bedlno",
    "coord": {
      "lat": 52.20829,
      "lon": 19.57592
    }
  },
  {
    "id": 776271,
    "name": "Bejsce",
    "coord": {
      "lat": 50.239029,
      "lon": 20.598339
    }
  },
  {
    "id": 776257,
    "name": "Belsk Duży",
    "coord": {
      "lat": 51.825611,
      "lon": 20.80847
    }
  },
  {
    "id": 776214,
    "name": "Besko",
    "coord": {
      "lat": 49.58757,
      "lon": 21.952921
    }
  },
  {
    "id": 3103656,
    "name": "Bestwina",
    "coord": {
      "lat": 49.897121,
      "lon": 19.05776
    }
  },
  {
    "id": 3103655,
    "name": "Bestwinka",
    "coord": {
      "lat": 49.93272,
      "lon": 19.06694
    }
  },
  {
    "id": 7532652,
    "name": "Bełchatów",
    "coord": {
      "lat": 51.3545,
      "lon": 19.3626
    }
  },
  {
    "id": 3103696,
    "name": "Bełk",
    "coord": {
      "lat": 50.130482,
      "lon": 18.716669
    }
  },
  {
    "id": 3103690,
    "name": "Bełsznica",
    "coord": {
      "lat": 49.978111,
      "lon": 18.363131
    }
  },
  {
    "id": 7576105,
    "name": "Bełżec",
    "coord": {
      "lat": 50.384529,
      "lon": 23.438391
    }
  },
  {
    "id": 776252,
    "name": "Bełżyce",
    "coord": {
      "lat": 51.174149,
      "lon": 22.28027
    }
  },
  {
    "id": 776093,
    "name": "Bialowieza",
    "coord": {
      "lat": 52.70385,
      "lon": 23.86574
    }
  },
  {
    "id": 3103644,
    "name": "Biała (Opolskie)",
    "coord": {
      "lat": 50.385872,
      "lon": 17.660351
    }
  },
  {
    "id": 7535565,
    "name": "Biała (mazowieckie)",
    "coord": {
      "lat": 52.60524,
      "lon": 19.649561
    }
  },
  {
    "id": 776178,
    "name": "Biała Piska",
    "coord": {
      "lat": 53.611912,
      "lon": 22.06321
    }
  },
  {
    "id": 7530726,
    "name": "Biała Podlaska",
    "coord": {
      "lat": 52.029041,
      "lon": 23.138309
    }
  },
  {
    "id": 776174,
    "name": "Biała Poduchowna",
    "coord": {
      "lat": 50.712849,
      "lon": 22.425329
    }
  },
  {
    "id": 7533262,
    "name": "Biała Rawska",
    "coord": {
      "lat": 51.798401,
      "lon": 20.473801
    }
  },
  {
    "id": 776184,
    "name": "Białaczów",
    "coord": {
      "lat": 51.298149,
      "lon": 20.297239
    }
  },
  {
    "id": 7532056,
    "name": "Białe Błota",
    "coord": {
      "lat": 53.086498,
      "lon": 17.9027
    }
  },
  {
    "id": 3103645,
    "name": "Białka",
    "coord": {
      "lat": 49.693062,
      "lon": 19.67033
    }
  },
  {
    "id": 776144,
    "name": "Białka Tatrzańska",
    "coord": {
      "lat": 49.389751,
      "lon": 20.10507
    }
  },
  {
    "id": 776113,
    "name": "Białobrzegi (mazowieckie, powiat legionowski)",
    "coord": {
      "lat": 52.44199,
      "lon": 21.052549
    }
  },
  {
    "id": 776114,
    "name": "Białobrzegi (mazowieckie, powiat białobrzeski)",
    "coord": {
      "lat": 51.64695,
      "lon": 20.950411
    }
  },
  {
    "id": 776120,
    "name": "Białobrzegi (podkarpackie)",
    "coord": {
      "lat": 50.10252,
      "lon": 22.319071
    }
  },
  {
    "id": 7531670,
    "name": "Białogard",
    "coord": {
      "lat": 54.014,
      "lon": 15.9755
    }
  },
  {
    "id": 776092,
    "name": "Białowieża",
    "coord": {
      "lat": 52.700001,
      "lon": 23.866671
    }
  },
  {
    "id": 3103545,
    "name": "Białośliwie",
    "coord": {
      "lat": 53.10461,
      "lon": 17.12533
    }
  },
  {
    "id": 7533111,
    "name": "Biały Bór",
    "coord": {
      "lat": 53.875301,
      "lon": 16.842899
    }
  },
  {
    "id": 7531507,
    "name": "Biały Dunajec",
    "coord": {
      "lat": 49.367298,
      "lon": 20.00798
    }
  },
  {
    "id": 3103524,
    "name": "Biały Szarlej",
    "coord": {
      "lat": 50.349998,
      "lon": 18.966669
    }
  },
  {
    "id": 776069,
    "name": "Białystok",
    "coord": {
      "lat": 53.133331,
      "lon": 23.15
    }
  },
  {
    "id": 7533250,
    "name": "Biecz",
    "coord": {
      "lat": 49.732201,
      "lon": 21.259001
    }
  },
  {
    "id": 776024,
    "name": "Bielany",
    "coord": {
      "lat": 52.34174,
      "lon": 22.24929
    }
  },
  {
    "id": 3103477,
    "name": "Bielany Wrocławskie",
    "coord": {
      "lat": 51.036098,
      "lon": 16.967699
    }
  },
  {
    "id": 7532267,
    "name": "Bielawa",
    "coord": {
      "lat": 50.6754,
      "lon": 16.6028
    }
  },
  {
    "id": 3103462,
    "name": "Bielawy",
    "coord": {
      "lat": 52.07539,
      "lon": 19.655569
    }
  },
  {
    "id": 3103432,
    "name": "Bielice",
    "coord": {
      "lat": 53.200218,
      "lon": 14.7276
    }
  },
  {
    "id": 775996,
    "name": "Bieliny (świętokrzyskie)",
    "coord": {
      "lat": 50.849468,
      "lon": 20.94149
    }
  },
  {
    "id": 776001,
    "name": "Bieliny (podkarpackie)",
    "coord": {
      "lat": 50.442371,
      "lon": 22.304819
    }
  },
  {
    "id": 3103411,
    "name": "Bielsk",
    "coord": {
      "lat": 52.671799,
      "lon": 19.805
    }
  },
  {
    "id": 7531759,
    "name": "Bielsk Podlaski",
    "coord": {
      "lat": 52.764099,
      "lon": 23.190201
    }
  },
  {
    "id": 7531032,
    "name": "Bielsko County",
    "coord": {
      "lat": 49.805962,
      "lon": 19.071739
    }
  },
  {
    "id": 3103402,
    "name": "Bielsko-Biala",
    "coord": {
      "lat": 49.822449,
      "lon": 19.04686
    }
  },
  {
    "id": 7532925,
    "name": "Bielsko-Biała",
    "coord": {
      "lat": 49.812,
      "lon": 19.0389
    }
  },
  {
    "id": 775976,
    "name": "Bieniewice",
    "coord": {
      "lat": 52.182678,
      "lon": 20.563061
    }
  },
  {
    "id": 3103388,
    "name": "Bierawa",
    "coord": {
      "lat": 50.281109,
      "lon": 18.24177
    }
  },
  {
    "id": 3103386,
    "name": "Bierdzany",
    "coord": {
      "lat": 50.81852,
      "lon": 18.158079
    }
  },
  {
    "id": 3103368,
    "name": "Biertułtowy",
    "coord": {
      "lat": 50.050629,
      "lon": 18.46454
    }
  },
  {
    "id": 3103364,
    "name": "Bierutów",
    "coord": {
      "lat": 51.124432,
      "lon": 17.54607
    }
  },
  {
    "id": 7531497,
    "name": "Bieruń",
    "coord": {
      "lat": 50.084381,
      "lon": 19.14328
    }
  },
  {
    "id": 3103351,
    "name": "Bierzwnik",
    "coord": {
      "lat": 53.035671,
      "lon": 15.665
    }
  },
  {
    "id": 3103391,
    "name": "Bieńkówka",
    "coord": {
      "lat": 49.776001,
      "lon": 19.77179
    }
  },
  {
    "id": 3103329,
    "name": "Bieżuń",
    "coord": {
      "lat": 52.961071,
      "lon": 19.889759
    }
  },
  {
    "id": 775917,
    "name": "Binarowa",
    "coord": {
      "lat": 49.75621,
      "lon": 21.228161
    }
  },
  {
    "id": 3103313,
    "name": "Binków",
    "coord": {
      "lat": 51.366501,
      "lon": 19.374479
    }
  },
  {
    "id": 775908,
    "name": "Bircza",
    "coord": {
      "lat": 49.69173,
      "lon": 22.47854
    }
  },
  {
    "id": 775894,
    "name": "Biskupice Radłowskie",
    "coord": {
      "lat": 50.120689,
      "lon": 20.85943
    }
  },
  {
    "id": 775890,
    "name": "Biskupiec (warmińsko-mazurskie, powiat olsztyński)",
    "coord": {
      "lat": 53.86467,
      "lon": 20.956921
    }
  },
  {
    "id": 7534548,
    "name": "Biskupiec (warmińsko-mazurskie, powiat nowomiejski)",
    "coord": {
      "lat": 53.500561,
      "lon": 19.350559
    }
  },
  {
    "id": 775888,
    "name": "Biszcza",
    "coord": {
      "lat": 50.401459,
      "lon": 22.650631
    }
  },
  {
    "id": 775886,
    "name": "Bisztynek",
    "coord": {
      "lat": 54.08633,
      "lon": 20.90192
    }
  },
  {
    "id": 7532583,
    "name": "Biłgoraj",
    "coord": {
      "lat": 50.539001,
      "lon": 22.711599
    }
  },
  {
    "id": 3103274,
    "name": "Blachownia",
    "coord": {
      "lat": 50.780151,
      "lon": 18.96389
    }
  },
  {
    "id": 3103247,
    "name": "Bledzew",
    "coord": {
      "lat": 52.517109,
      "lon": 15.41382
    }
  },
  {
    "id": 3103236,
    "name": "Blizanów",
    "coord": {
      "lat": 51.903721,
      "lon": 18.010031
    }
  },
  {
    "id": 775840,
    "name": "Blizne",
    "coord": {
      "lat": 49.753319,
      "lon": 21.973511
    }
  },
  {
    "id": 775836,
    "name": "Bliżyn",
    "coord": {
      "lat": 51.10778,
      "lon": 20.75935
    }
  },
  {
    "id": 7533170,
    "name": "Bobolice",
    "coord": {
      "lat": 53.958199,
      "lon": 16.586599
    }
  },
  {
    "id": 775796,
    "name": "Bobowa",
    "coord": {
      "lat": 49.70866,
      "lon": 20.94767
    }
  },
  {
    "id": 3103173,
    "name": "Bobowo",
    "coord": {
      "lat": 53.883781,
      "lon": 18.55681
    }
  },
  {
    "id": 3103162,
    "name": "Bobrowice",
    "coord": {
      "lat": 51.948502,
      "lon": 15.09058
    }
  },
  {
    "id": 775775,
    "name": "Bobrowniki (łódzkie)",
    "coord": {
      "lat": 52.064419,
      "lon": 20.019489
    }
  },
  {
    "id": 3103148,
    "name": "Bobrowniki (kujawsko-pomorskie)",
    "coord": {
      "lat": 52.780861,
      "lon": 18.96026
    }
  },
  {
    "id": 7531812,
    "name": "Bobrowniki (śląskie)",
    "coord": {
      "lat": 50.379959,
      "lon": 18.98506
    }
  },
  {
    "id": 3103142,
    "name": "Bobrowo",
    "coord": {
      "lat": 53.285488,
      "lon": 19.270531
    }
  },
  {
    "id": 7532635,
    "name": "Bochnia",
    "coord": {
      "lat": 49.974701,
      "lon": 20.429199
    }
  },
  {
    "id": 775738,
    "name": "Bodzanów",
    "coord": {
      "lat": 52.49992,
      "lon": 20.029449
    }
  },
  {
    "id": 775737,
    "name": "Bodzechów",
    "coord": {
      "lat": 50.90715,
      "lon": 21.437149
    }
  },
  {
    "id": 775736,
    "name": "Bodzentyn",
    "coord": {
      "lat": 50.941151,
      "lon": 20.95719
    }
  },
  {
    "id": 7533031,
    "name": "Bogatynia",
    "coord": {
      "lat": 50.922298,
      "lon": 14.9386
    }
  },
  {
    "id": 3103091,
    "name": "Bogdaniec",
    "coord": {
      "lat": 52.688969,
      "lon": 15.07127
    }
  },
  {
    "id": 775720,
    "name": "Bogoria",
    "coord": {
      "lat": 50.651749,
      "lon": 21.26
    }
  },
  {
    "id": 7533096,
    "name": "Boguchwała",
    "coord": {
      "lat": 49.983601,
      "lon": 21.936501
    }
  },
  {
    "id": 3103063,
    "name": "Bogucin Mały",
    "coord": {
      "lat": 50.309681,
      "lon": 19.57732
    }
  },
  {
    "id": 7532605,
    "name": "Boguszów-Gorce",
    "coord": {
      "lat": 50.7551,
      "lon": 16.205099
    }
  },
  {
    "id": 775684,
    "name": "Boguty-Pianki",
    "coord": {
      "lat": 52.716801,
      "lon": 22.415461
    }
  },
  {
    "id": 3103016,
    "name": "Bojadła",
    "coord": {
      "lat": 51.953209,
      "lon": 15.81036
    }
  },
  {
    "id": 3103015,
    "name": "Bojano",
    "coord": {
      "lat": 54.47123,
      "lon": 18.384081
    }
  },
  {
    "id": 3103009,
    "name": "Bojanowo",
    "coord": {
      "lat": 51.707489,
      "lon": 16.74827
    }
  },
  {
    "id": 3103008,
    "name": "Bojanowo Stare",
    "coord": {
      "lat": 51.993019,
      "lon": 16.583691
    }
  },
  {
    "id": 775672,
    "name": "Bojanów",
    "coord": {
      "lat": 50.425308,
      "lon": 21.951111
    }
  },
  {
    "id": 3103004,
    "name": "Bojszowy",
    "coord": {
      "lat": 50.0578,
      "lon": 19.10145
    }
  },
  {
    "id": 3103001,
    "name": "Bojszowy Nowe",
    "coord": {
      "lat": 50.052841,
      "lon": 19.050119
    }
  },
  {
    "id": 3102999,
    "name": "Bolechowice",
    "coord": {
      "lat": 50.148312,
      "lon": 19.79273
    }
  },
  {
    "id": 3102975,
    "name": "Boleszkowice",
    "coord": {
      "lat": 52.72493,
      "lon": 14.56901
    }
  },
  {
    "id": 3102992,
    "name": "Bolesław",
    "coord": {
      "lat": 50.297291,
      "lon": 19.48073
    }
  },
  {
    "id": 3102988,
    "name": "Bolesławiec (łódzkie)",
    "coord": {
      "lat": 51.198662,
      "lon": 18.191469
    }
  },
  {
    "id": 7532649,
    "name": "Bolesławiec (dolnośląskie)",
    "coord": {
      "lat": 51.321499,
      "lon": 15.5488
    }
  },
  {
    "id": 775634,
    "name": "Bolimów",
    "coord": {
      "lat": 52.07671,
      "lon": 20.163521
    }
  },
  {
    "id": 3102969,
    "name": "Bolków",
    "coord": {
      "lat": 50.922031,
      "lon": 16.10111
    }
  },
  {
    "id": 3102961,
    "name": "Bolszewo",
    "coord": {
      "lat": 54.618011,
      "lon": 18.17585
    }
  },
  {
    "id": 3102997,
    "name": "Bolęcin",
    "coord": {
      "lat": 50.1175,
      "lon": 19.481159
    }
  },
  {
    "id": 3102956,
    "name": "Boniewo",
    "coord": {
      "lat": 52.465321,
      "lon": 18.891159
    }
  },
  {
    "id": 775594,
    "name": "Borek (małopolskie)",
    "coord": {
      "lat": 50.01778,
      "lon": 20.53087
    }
  },
  {
    "id": 3102932,
    "name": "Borek (dolnośląskie)",
    "coord": {
      "lat": 50.418098,
      "lon": 16.472429
    }
  },
  {
    "id": 3102909,
    "name": "Borek Wielkopolski",
    "coord": {
      "lat": 51.91674,
      "lon": 17.241329
    }
  },
  {
    "id": 775555,
    "name": "Borki (mazowieckie)",
    "coord": {
      "lat": 52.4641,
      "lon": 21.64537
    }
  },
  {
    "id": 775561,
    "name": "Borki (świętokrzyskie)",
    "coord": {
      "lat": 51.721611,
      "lon": 22.52129
    }
  },
  {
    "id": 775533,
    "name": "Borkowice",
    "coord": {
      "lat": 51.320251,
      "lon": 20.68339
    }
  },
  {
    "id": 3084213,
    "name": "Borne Sulinowo",
    "coord": {
      "lat": 53.576611,
      "lon": 16.533951
    }
  },
  {
    "id": 3102869,
    "name": "Boronów",
    "coord": {
      "lat": 50.674599,
      "lon": 18.90678
    }
  },
  {
    "id": 775513,
    "name": "Borowa",
    "coord": {
      "lat": 50.385479,
      "lon": 21.3515
    }
  },
  {
    "id": 775493,
    "name": "Borowie",
    "coord": {
      "lat": 51.949081,
      "lon": 21.7658
    }
  },
  {
    "id": 3102819,
    "name": "Borowno",
    "coord": {
      "lat": 50.932468,
      "lon": 19.2738
    }
  },
  {
    "id": 3102791,
    "name": "Borucin",
    "coord": {
      "lat": 50.007629,
      "lon": 18.15748
    }
  },
  {
    "id": 775424,
    "name": "Borzechów",
    "coord": {
      "lat": 51.092579,
      "lon": 22.28414
    }
  },
  {
    "id": 3102728,
    "name": "Borzytuchom",
    "coord": {
      "lat": 54.200211,
      "lon": 17.36801
    }
  },
  {
    "id": 775423,
    "name": "Borzęcin",
    "coord": {
      "lat": 50.065399,
      "lon": 20.711029
    }
  },
  {
    "id": 3102747,
    "name": "Borzęta",
    "coord": {
      "lat": 49.862282,
      "lon": 19.97924
    }
  },
  {
    "id": 7531988,
    "name": "Borów",
    "coord": {
      "lat": 50.857399,
      "lon": 17.0065
    }
  },
  {
    "id": 3102825,
    "name": "Borówki",
    "coord": {
      "lat": 51.361172,
      "lon": 15.74152
    }
  },
  {
    "id": 3102704,
    "name": "Bozkow",
    "coord": {
      "lat": 50.513149,
      "lon": 16.575279
    }
  },
  {
    "id": 775754,
    "name": "Boćki",
    "coord": {
      "lat": 52.65155,
      "lon": 23.044849
    }
  },
  {
    "id": 3102686,
    "name": "Bralin",
    "coord": {
      "lat": 51.285809,
      "lon": 17.90325
    }
  },
  {
    "id": 7531262,
    "name": "Branice",
    "coord": {
      "lat": 50.056461,
      "lon": 17.814251
    }
  },
  {
    "id": 7532292,
    "name": "Braniewo",
    "coord": {
      "lat": 54.379398,
      "lon": 19.820499
    }
  },
  {
    "id": 775359,
    "name": "Brańsk",
    "coord": {
      "lat": 52.7444,
      "lon": 22.83774
    }
  },
  {
    "id": 775358,
    "name": "Brańszczyk",
    "coord": {
      "lat": 52.629311,
      "lon": 21.58745
    }
  },
  {
    "id": 3102658,
    "name": "Brdów",
    "coord": {
      "lat": 52.353901,
      "lon": 18.729799
    }
  },
  {
    "id": 3102652,
    "name": "Brenna",
    "coord": {
      "lat": 49.725761,
      "lon": 18.902491
    }
  },
  {
    "id": 3102650,
    "name": "Brenno",
    "coord": {
      "lat": 51.922569,
      "lon": 16.21488
    }
  },
  {
    "id": 775334,
    "name": "Brochów",
    "coord": {
      "lat": 52.3195,
      "lon": 20.262569
    }
  },
  {
    "id": 3102628,
    "name": "Brodnica (wielkopolskie)",
    "coord": {
      "lat": 52.141232,
      "lon": 16.890961
    }
  },
  {
    "id": 7532702,
    "name": "Brodnica (kujawsko-pomorskie)",
    "coord": {
      "lat": 53.2579,
      "lon": 19.406401
    }
  },
  {
    "id": 3102621,
    "name": "Brodniki",
    "coord": {
      "lat": 53.884209,
      "lon": 15.20559
    }
  },
  {
    "id": 775318,
    "name": "Brody (świętokrzyskie)",
    "coord": {
      "lat": 51.024658,
      "lon": 21.22147
    }
  },
  {
    "id": 3102615,
    "name": "Brody (lubuskie)",
    "coord": {
      "lat": 51.790459,
      "lon": 14.77335
    }
  },
  {
    "id": 3102616,
    "name": "Brody (małopolskie)",
    "coord": {
      "lat": 49.86742,
      "lon": 19.69746
    }
  },
  {
    "id": 7522516,
    "name": "Brody-Parcele",
    "coord": {
      "lat": 52.47797,
      "lon": 20.749741
    }
  },
  {
    "id": 3102634,
    "name": "Brodła",
    "coord": {
      "lat": 50.043308,
      "lon": 19.588791
    }
  },
  {
    "id": 3102597,
    "name": "Brojce",
    "coord": {
      "lat": 53.95705,
      "lon": 15.35975
    }
  },
  {
    "id": 7533299,
    "name": "Brok",
    "coord": {
      "lat": 52.6982,
      "lon": 21.880501
    }
  },
  {
    "id": 7535721,
    "name": "Broniszewice",
    "coord": {
      "lat": 51.966961,
      "lon": 17.816481
    }
  },
  {
    "id": 3102555,
    "name": "Bronów",
    "coord": {
      "lat": 49.877819,
      "lon": 18.92103
    }
  },
  {
    "id": 3102510,
    "name": "Brudzew",
    "coord": {
      "lat": 52.099491,
      "lon": 18.604321
    }
  },
  {
    "id": 3102513,
    "name": "Brudzeń Duży",
    "coord": {
      "lat": 52.668839,
      "lon": 19.50399
    }
  },
  {
    "id": 3102488,
    "name": "Brusy",
    "coord": {
      "lat": 53.88446,
      "lon": 17.717859
    }
  },
  {
    "id": 7533371,
    "name": "Brwinów",
    "coord": {
      "lat": 52.143101,
      "lon": 20.716299
    }
  },
  {
    "id": 7532249,
    "name": "Brzeg",
    "coord": {
      "lat": 50.858898,
      "lon": 17.462799
    }
  },
  {
    "id": 7533397,
    "name": "Brzeg Dolny",
    "coord": {
      "lat": 51.268398,
      "lon": 16.719601
    }
  },
  {
    "id": 7533116,
    "name": "Brzesko",
    "coord": {
      "lat": 49.974499,
      "lon": 20.610701
    }
  },
  {
    "id": 7533373,
    "name": "Brzeszcze",
    "coord": {
      "lat": 49.983521,
      "lon": 19.147449
    }
  },
  {
    "id": 3102409,
    "name": "Brzezinka",
    "coord": {
      "lat": 50.04237,
      "lon": 19.190201
    }
  },
  {
    "id": 775155,
    "name": "Brzeziny (świętokrzyskie)",
    "coord": {
      "lat": 50.772732,
      "lon": 20.573191
    }
  },
  {
    "id": 7531224,
    "name": "Brzeziny (łódzkie)",
    "coord": {
      "lat": 51.800659,
      "lon": 19.749439
    }
  },
  {
    "id": 3102378,
    "name": "Brzeziny Śląskie",
    "coord": {
      "lat": 50.354389,
      "lon": 18.981291
    }
  },
  {
    "id": 3102447,
    "name": "Brześć Kujawski",
    "coord": {
      "lat": 52.60532,
      "lon": 18.90173
    }
  },
  {
    "id": 775136,
    "name": "Brzeźnica (podkarpackie)",
    "coord": {
      "lat": 50.100651,
      "lon": 21.480249
    }
  },
  {
    "id": 3102374,
    "name": "Brzeźnica (małopolskie)",
    "coord": {
      "lat": 49.96497,
      "lon": 19.61952
    }
  },
  {
    "id": 3102362,
    "name": "Brzeźnio",
    "coord": {
      "lat": 51.493999,
      "lon": 18.622339
    }
  },
  {
    "id": 775110,
    "name": "Brzostek",
    "coord": {
      "lat": 49.879539,
      "lon": 21.41102
    }
  },
  {
    "id": 3102316,
    "name": "Brzozie",
    "coord": {
      "lat": 53.325539,
      "lon": 19.604851
    }
  },
  {
    "id": 775075,
    "name": "Brzozowica",
    "coord": {
      "lat": 52.339218,
      "lon": 21.68066
    }
  },
  {
    "id": 7533348,
    "name": "Brzozów",
    "coord": {
      "lat": 49.697701,
      "lon": 22.0194
    }
  },
  {
    "id": 3102283,
    "name": "Brzuze",
    "coord": {
      "lat": 53.054581,
      "lon": 19.26195
    }
  },
  {
    "id": 775010,
    "name": "Brzyska",
    "coord": {
      "lat": 49.822262,
      "lon": 21.390039
    }
  },
  {
    "id": 775098,
    "name": "Brzóza Królewska",
    "coord": {
      "lat": 50.239079,
      "lon": 22.32559
    }
  },
  {
    "id": 775097,
    "name": "Brzóza Stadnicka",
    "coord": {
      "lat": 50.19965,
      "lon": 22.28233
    }
  },
  {
    "id": 775210,
    "name": "Brzączowice",
    "coord": {
      "lat": 49.874779,
      "lon": 20.03709
    }
  },
  {
    "id": 3102598,
    "name": "Brójce (lubuskie)",
    "coord": {
      "lat": 52.317451,
      "lon": 15.67414
    }
  },
  {
    "id": 3102599,
    "name": "Brójce (łódzkie)",
    "coord": {
      "lat": 51.66436,
      "lon": 19.64802
    }
  },
  {
    "id": 3102673,
    "name": "Brąszewice",
    "coord": {
      "lat": 51.49902,
      "lon": 18.44982
    }
  },
  {
    "id": 3102261,
    "name": "Buczek",
    "coord": {
      "lat": 51.502281,
      "lon": 19.16419
    }
  },
  {
    "id": 3102252,
    "name": "Buczkowice",
    "coord": {
      "lat": 49.72858,
      "lon": 19.06908
    }
  },
  {
    "id": 3102181,
    "name": "Budziszewice",
    "coord": {
      "lat": 51.667389,
      "lon": 19.93581
    }
  },
  {
    "id": 3102162,
    "name": "Budzyń (wielkopolskie)",
    "coord": {
      "lat": 52.889542,
      "lon": 16.988119
    }
  },
  {
    "id": 3102171,
    "name": "Budzów (dolnośląskie)",
    "coord": {
      "lat": 50.593369,
      "lon": 16.710381
    }
  },
  {
    "id": 3102172,
    "name": "Budzów (małopolskie)",
    "coord": {
      "lat": 49.776218,
      "lon": 19.672741
    }
  },
  {
    "id": 774843,
    "name": "Bugaj",
    "coord": {
      "lat": 51.069721,
      "lon": 21.06925
    }
  },
  {
    "id": 3102147,
    "name": "Bujaków",
    "coord": {
      "lat": 49.851822,
      "lon": 19.194321
    }
  },
  {
    "id": 3102138,
    "name": "Buk",
    "coord": {
      "lat": 52.35532,
      "lon": 16.519581
    }
  },
  {
    "id": 3102100,
    "name": "Bukowiec",
    "coord": {
      "lat": 53.43383,
      "lon": 18.24048
    }
  },
  {
    "id": 7531136,
    "name": "Bukowina Tatrzańska",
    "coord": {
      "lat": 49.30331,
      "lon": 20.098301
    }
  },
  {
    "id": 3102076,
    "name": "Bukowno",
    "coord": {
      "lat": 50.26474,
      "lon": 19.45962
    }
  },
  {
    "id": 774776,
    "name": "Bukowsko",
    "coord": {
      "lat": 49.480389,
      "lon": 22.06329
    }
  },
  {
    "id": 774770,
    "name": "Bulkowo",
    "coord": {
      "lat": 52.540871,
      "lon": 20.118891
    }
  },
  {
    "id": 3102058,
    "name": "Bulowice",
    "coord": {
      "lat": 49.876499,
      "lon": 19.288731
    }
  },
  {
    "id": 3102046,
    "name": "Burzenin",
    "coord": {
      "lat": 51.46077,
      "lon": 18.832331
    }
  },
  {
    "id": 7533360,
    "name": "Busko-Zdrój",
    "coord": {
      "lat": 50.4702,
      "lon": 20.716499
    }
  },
  {
    "id": 774730,
    "name": "Bychawa",
    "coord": {
      "lat": 51.016079,
      "lon": 22.532961
    }
  },
  {
    "id": 3102019,
    "name": "Byczyna",
    "coord": {
      "lat": 51.113869,
      "lon": 18.21413
    }
  },
  {
    "id": 7530814,
    "name": "Bydgoszcz",
    "coord": {
      "lat": 53.12973,
      "lon": 18.0383
    }
  },
  {
    "id": 774711,
    "name": "Bystra (małopolskie)",
    "coord": {
      "lat": 49.66235,
      "lon": 21.086281
    }
  },
  {
    "id": 3101987,
    "name": "Bystra (śląskie)",
    "coord": {
      "lat": 49.760422,
      "lon": 19.059731
    }
  },
  {
    "id": 3101992,
    "name": "Bystra (małopolskie)",
    "coord": {
      "lat": 49.647961,
      "lon": 19.77994
    }
  },
  {
    "id": 3101976,
    "name": "Bystrzyca",
    "coord": {
      "lat": 50.96048,
      "lon": 17.39702
    }
  },
  {
    "id": 7533073,
    "name": "Bystrzyca Kłodzka",
    "coord": {
      "lat": 50.2953,
      "lon": 16.6499
    }
  },
  {
    "id": 3101951,
    "name": "Bytnica",
    "coord": {
      "lat": 52.150661,
      "lon": 15.16946
    }
  },
  {
    "id": 7530986,
    "name": "Bytom",
    "coord": {
      "lat": 50.365211,
      "lon": 18.876301
    }
  },
  {
    "id": 3101947,
    "name": "Bytom Odrzański",
    "coord": {
      "lat": 51.730621,
      "lon": 15.82362
    }
  },
  {
    "id": 3101946,
    "name": "Bytoń",
    "coord": {
      "lat": 52.557571,
      "lon": 18.595221
    }
  },
  {
    "id": 7533199,
    "name": "Bytów",
    "coord": {
      "lat": 54.179699,
      "lon": 17.500601
    }
  },
  {
    "id": 3103926,
    "name": "Bąków",
    "coord": {
      "lat": 49.893421,
      "lon": 18.714951
    }
  },
  {
    "id": 3103756,
    "name": "Bębło",
    "coord": {
      "lat": 50.180531,
      "lon": 19.787411
    }
  },
  {
    "id": 3103751,
    "name": "Bęczarka",
    "coord": {
      "lat": 49.87793,
      "lon": 19.867229
    }
  },
  {
    "id": 3103742,
    "name": "Będków",
    "coord": {
      "lat": 51.587631,
      "lon": 19.749559
    }
  },
  {
    "id": 7532923,
    "name": "Będzin",
    "coord": {
      "lat": 50.3358,
      "lon": 19.123899
    }
  },
  {
    "id": 7532240,
    "name": "Będzino",
    "coord": {
      "lat": 54.196701,
      "lon": 15.9643
    }
  },
  {
    "id": 3103261,
    "name": "Błaszki",
    "coord": {
      "lat": 51.65163,
      "lon": 18.434719
    }
  },
  {
    "id": 775866,
    "name": "Błażowa",
    "coord": {
      "lat": 49.885208,
      "lon": 22.10037
    }
  },
  {
    "id": 775820,
    "name": "Błonie",
    "coord": {
      "lat": 52.19849,
      "lon": 20.61709
    }
  },
  {
    "id": 3103267,
    "name": "Błądzikowo",
    "coord": {
      "lat": 54.698238,
      "lon": 18.430599
    }
  },
  {
    "id": 775860,
    "name": "Błędów",
    "coord": {
      "lat": 51.777672,
      "lon": 20.697981
    }
  },
  {
    "id": 3101919,
    "name": "Cedry Wielkie",
    "coord": {
      "lat": 54.24707,
      "lon": 18.845671
    }
  },
  {
    "id": 3101918,
    "name": "Cedynia",
    "coord": {
      "lat": 52.879311,
      "lon": 14.20249
    }
  },
  {
    "id": 774649,
    "name": "Cegłów",
    "coord": {
      "lat": 52.14782,
      "lon": 21.737391
    }
  },
  {
    "id": 3101902,
    "name": "Cekcyn",
    "coord": {
      "lat": 53.572941,
      "lon": 18.01123
    }
  },
  {
    "id": 774641,
    "name": "Celestynów",
    "coord": {
      "lat": 52.060928,
      "lon": 21.391069
    }
  },
  {
    "id": 774628,
    "name": "Ceranów",
    "coord": {
      "lat": 52.630821,
      "lon": 22.22826
    }
  },
  {
    "id": 3101879,
    "name": "Cerkwica",
    "coord": {
      "lat": 54.007771,
      "lon": 15.10903
    }
  },
  {
    "id": 3101869,
    "name": "Cewice",
    "coord": {
      "lat": 54.435509,
      "lon": 17.73485
    }
  },
  {
    "id": 3101856,
    "name": "Chałupki",
    "coord": {
      "lat": 49.925591,
      "lon": 18.317301
    }
  },
  {
    "id": 7530729,
    "name": "Chełm",
    "coord": {
      "lat": 51.135578,
      "lon": 23.48971
    }
  },
  {
    "id": 7530737,
    "name": "Chełm County",
    "coord": {
      "lat": 51.122101,
      "lon": 23.49073
    }
  },
  {
    "id": 3101788,
    "name": "Chełm Śląski",
    "coord": {
      "lat": 50.10825,
      "lon": 19.19552
    }
  },
  {
    "id": 3101812,
    "name": "Chełmek",
    "coord": {
      "lat": 50.101631,
      "lon": 19.248011
    }
  },
  {
    "id": 774554,
    "name": "Chełmiec",
    "coord": {
      "lat": 49.630508,
      "lon": 20.664249
    }
  },
  {
    "id": 7532268,
    "name": "Chełmno",
    "coord": {
      "lat": 53.349171,
      "lon": 18.42605
    }
  },
  {
    "id": 7532012,
    "name": "Chełmża",
    "coord": {
      "lat": 53.192299,
      "lon": 18.608801
    }
  },
  {
    "id": 3101777,
    "name": "Chlastawa",
    "coord": {
      "lat": 52.244541,
      "lon": 15.83345
    }
  },
  {
    "id": 774534,
    "name": "Chlewiska (lubelskie)",
    "coord": {
      "lat": 51.47187,
      "lon": 22.64031
    }
  },
  {
    "id": 774535,
    "name": "Chlewiska (mazowieckie)",
    "coord": {
      "lat": 51.243759,
      "lon": 20.768709
    }
  },
  {
    "id": 774504,
    "name": "Chmielnik (świętokrzyskie)",
    "coord": {
      "lat": 50.614399,
      "lon": 20.75206
    }
  },
  {
    "id": 774505,
    "name": "Chmielnik (podkarpackie)",
    "coord": {
      "lat": 49.973862,
      "lon": 22.14535
    }
  },
  {
    "id": 3101734,
    "name": "Chmielno",
    "coord": {
      "lat": 54.325432,
      "lon": 18.0986
    }
  },
  {
    "id": 3101639,
    "name": "Chmielowice",
    "coord": {
      "lat": 50.64957,
      "lon": 17.86669
    }
  },
  {
    "id": 3101726,
    "name": "Choceń",
    "coord": {
      "lat": 52.486179,
      "lon": 19.01339
    }
  },
  {
    "id": 3101720,
    "name": "Chocianowice",
    "coord": {
      "lat": 51.70816,
      "lon": 19.39814
    }
  },
  {
    "id": 7533252,
    "name": "Chocianów",
    "coord": {
      "lat": 51.4175,
      "lon": 15.906
    }
  },
  {
    "id": 3101697,
    "name": "Chociwel",
    "coord": {
      "lat": 53.466961,
      "lon": 15.33342
    }
  },
  {
    "id": 3101695,
    "name": "Chocz",
    "coord": {
      "lat": 51.976421,
      "lon": 17.869949
    }
  },
  {
    "id": 3101693,
    "name": "Choczewo",
    "coord": {
      "lat": 54.739929,
      "lon": 17.89175
    }
  },
  {
    "id": 3101691,
    "name": "Chocznia",
    "coord": {
      "lat": 49.874168,
      "lon": 19.45438
    }
  },
  {
    "id": 3101689,
    "name": "Chodecz",
    "coord": {
      "lat": 52.405128,
      "lon": 19.02759
    }
  },
  {
    "id": 774472,
    "name": "Chodel",
    "coord": {
      "lat": 51.111771,
      "lon": 22.13269
    }
  },
  {
    "id": 7531638,
    "name": "Chodzież",
    "coord": {
      "lat": 52.9949,
      "lon": 16.915701
    }
  },
  {
    "id": 3101684,
    "name": "Chodów",
    "coord": {
      "lat": 52.249611,
      "lon": 19.01218
    }
  },
  {
    "id": 7533173,
    "name": "Chojna",
    "coord": {
      "lat": 52.9562,
      "lon": 14.4269
    }
  },
  {
    "id": 7532055,
    "name": "Chojnice",
    "coord": {
      "lat": 53.699902,
      "lon": 17.560101
    }
  },
  {
    "id": 7531896,
    "name": "Chojnów",
    "coord": {
      "lat": 51.2938,
      "lon": 15.9078
    }
  },
  {
    "id": 774413,
    "name": "Chomęciska Duże",
    "coord": {
      "lat": 50.800442,
      "lon": 23.17128
    }
  },
  {
    "id": 774396,
    "name": "Chorkówka",
    "coord": {
      "lat": 49.646679,
      "lon": 21.67156
    }
  },
  {
    "id": 774393,
    "name": "Choroszcz",
    "coord": {
      "lat": 53.143318,
      "lon": 22.98889
    }
  },
  {
    "id": 3101635,
    "name": "Choroń",
    "coord": {
      "lat": 50.681782,
      "lon": 19.26058
    }
  },
  {
    "id": 7533266,
    "name": "Chorzele",
    "coord": {
      "lat": 53.2603,
      "lon": 20.914801
    }
  },
  {
    "id": 7530967,
    "name": "Chorzów",
    "coord": {
      "lat": 50.28849,
      "lon": 18.96283
    }
  },
  {
    "id": 3101613,
    "name": "Choszczno",
    "coord": {
      "lat": 53.169048,
      "lon": 15.42054
    }
  },
  {
    "id": 7535495,
    "name": "Chotcza",
    "coord": {
      "lat": 51.240429,
      "lon": 21.776621
    }
  },
  {
    "id": 3101577,
    "name": "Chrostkowo",
    "coord": {
      "lat": 52.943779,
      "lon": 19.253281
    }
  },
  {
    "id": 3101587,
    "name": "Chrościna",
    "coord": {
      "lat": 50.665779,
      "lon": 17.817591
    }
  },
  {
    "id": 3101553,
    "name": "Chruszczobród",
    "coord": {
      "lat": 50.4147,
      "lon": 19.327181
    }
  },
  {
    "id": 774304,
    "name": "Chrzanów (lubelskie)",
    "coord": {
      "lat": 50.77256,
      "lon": 22.60351
    }
  },
  {
    "id": 7533327,
    "name": "Chrzanów (małopolskie)",
    "coord": {
      "lat": 50.1292,
      "lon": 19.359501
    }
  },
  {
    "id": 774302,
    "name": "Chrzanów Duży",
    "coord": {
      "lat": 52.12698,
      "lon": 20.623699
    }
  },
  {
    "id": 3101513,
    "name": "Chrzypsko Wielkie",
    "coord": {
      "lat": 52.62817,
      "lon": 16.228519
    }
  },
  {
    "id": 3101531,
    "name": "Chrząstowice",
    "coord": {
      "lat": 50.666222,
      "lon": 18.072941
    }
  },
  {
    "id": 3101592,
    "name": "Chróścice",
    "coord": {
      "lat": 50.780762,
      "lon": 17.812269
    }
  },
  {
    "id": 7576332,
    "name": "Chróścina",
    "coord": {
      "lat": 50.623058,
      "lon": 17.36861
    }
  },
  {
    "id": 3101497,
    "name": "Chwalęcice",
    "coord": {
      "lat": 52.767609,
      "lon": 15.2077
    }
  },
  {
    "id": 3101471,
    "name": "Chwaszczyno",
    "coord": {
      "lat": 54.44379,
      "lon": 18.418751
    }
  },
  {
    "id": 774265,
    "name": "Chwałowice",
    "coord": {
      "lat": 50.766651,
      "lon": 21.886829
    }
  },
  {
    "id": 7531856,
    "name": "Chybie",
    "coord": {
      "lat": 49.902931,
      "lon": 18.82765
    }
  },
  {
    "id": 774243,
    "name": "Chynów",
    "coord": {
      "lat": 51.904251,
      "lon": 21.082081
    }
  },
  {
    "id": 3101453,
    "name": "Chyżne",
    "coord": {
      "lat": 49.42672,
      "lon": 19.669559
    }
  },
  {
    "id": 3101829,
    "name": "Chąśno",
    "coord": {
      "lat": 52.195351,
      "lon": 19.942591
    }
  },
  {
    "id": 774572,
    "name": "Chęciny",
    "coord": {
      "lat": 50.800209,
      "lon": 20.46229
    }
  },
  {
    "id": 3101778,
    "name": "Chłapowo",
    "coord": {
      "lat": 54.80365,
      "lon": 18.37352
    }
  },
  {
    "id": 3101446,
    "name": "Ciasna",
    "coord": {
      "lat": 50.754269,
      "lon": 18.608351
    }
  },
  {
    "id": 3101435,
    "name": "Cichorajka",
    "coord": {
      "lat": 51.966671,
      "lon": 19.716669
    }
  },
  {
    "id": 7533272,
    "name": "Ciechanowiec",
    "coord": {
      "lat": 52.6763,
      "lon": 22.5072
    }
  },
  {
    "id": 7531644,
    "name": "Ciechanów",
    "coord": {
      "lat": 52.870998,
      "lon": 20.614799
    }
  },
  {
    "id": 3101428,
    "name": "Ciechocin",
    "coord": {
      "lat": 53.055809,
      "lon": 18.92635
    }
  },
  {
    "id": 3101426,
    "name": "Ciechocinek",
    "coord": {
      "lat": 52.879082,
      "lon": 18.79505
    }
  },
  {
    "id": 3101425,
    "name": "Ciechocino",
    "coord": {
      "lat": 54.612179,
      "lon": 18.35445
    }
  },
  {
    "id": 3101420,
    "name": "Ciechów",
    "coord": {
      "lat": 51.132179,
      "lon": 16.56773
    }
  },
  {
    "id": 3099378,
    "name": "Cielmice",
    "coord": {
      "lat": 50.088261,
      "lon": 19.018961
    }
  },
  {
    "id": 774186,
    "name": "Cielądz",
    "coord": {
      "lat": 51.715759,
      "lon": 20.34428
    }
  },
  {
    "id": 774158,
    "name": "Ciepielów",
    "coord": {
      "lat": 51.248379,
      "lon": 21.574751
    }
  },
  {
    "id": 3101367,
    "name": "Cieplice Śląskie Zdrój",
    "coord": {
      "lat": 50.865452,
      "lon": 15.68367
    }
  },
  {
    "id": 3101365,
    "name": "Ciepłowody",
    "coord": {
      "lat": 50.67477,
      "lon": 16.90871
    }
  },
  {
    "id": 774128,
    "name": "Cieszanów",
    "coord": {
      "lat": 50.24564,
      "lon": 23.13163
    }
  },
  {
    "id": 7531972,
    "name": "Cieszków",
    "coord": {
      "lat": 51.6064,
      "lon": 17.3433
    }
  },
  {
    "id": 7532301,
    "name": "Cieszyn",
    "coord": {
      "lat": 49.749222,
      "lon": 18.631781
    }
  },
  {
    "id": 3101294,
    "name": "Cisek",
    "coord": {
      "lat": 50.282318,
      "lon": 18.199881
    }
  },
  {
    "id": 3101289,
    "name": "Cisiec",
    "coord": {
      "lat": 49.592129,
      "lon": 19.1054
    }
  },
  {
    "id": 774090,
    "name": "Cisna",
    "coord": {
      "lat": 49.21328,
      "lon": 22.32795
    }
  },
  {
    "id": 3101277,
    "name": "Cisownica",
    "coord": {
      "lat": 49.722759,
      "lon": 18.76207
    }
  },
  {
    "id": 3101415,
    "name": "Cięcina",
    "coord": {
      "lat": 49.6022,
      "lon": 19.14102
    }
  },
  {
    "id": 774116,
    "name": "Ciężkowice",
    "coord": {
      "lat": 49.785751,
      "lon": 20.97324
    }
  },
  {
    "id": 7287839,
    "name": "Cmentarz Centralny",
    "coord": {
      "lat": 53.41708,
      "lon": 14.52242
    }
  },
  {
    "id": 774058,
    "name": "Cmolas",
    "coord": {
      "lat": 50.295261,
      "lon": 21.744169
    }
  },
  {
    "id": 3101255,
    "name": "Cybinka",
    "coord": {
      "lat": 52.194462,
      "lon": 14.79567
    }
  },
  {
    "id": 774030,
    "name": "Cyców",
    "coord": {
      "lat": 51.299278,
      "lon": 23.141239
    }
  },
  {
    "id": 3088271,
    "name": "Cynków",
    "coord": {
      "lat": 50.562031,
      "lon": 19.11956
    }
  },
  {
    "id": 3101224,
    "name": "Czajków",
    "coord": {
      "lat": 51.49197,
      "lon": 18.327259
    }
  },
  {
    "id": 3101220,
    "name": "Czaniec",
    "coord": {
      "lat": 49.850712,
      "lon": 19.25354
    }
  },
  {
    "id": 7533358,
    "name": "Czaplinek",
    "coord": {
      "lat": 53.557899,
      "lon": 16.232639
    }
  },
  {
    "id": 3101201,
    "name": "Czapury",
    "coord": {
      "lat": 52.317188,
      "lon": 16.91268
    }
  },
  {
    "id": 3101198,
    "name": "Czarków",
    "coord": {
      "lat": 50.01833,
      "lon": 18.90678
    }
  },
  {
    "id": 773966,
    "name": "Czarna (podkarpackie, powiat dębicki)",
    "coord": {
      "lat": 50.067169,
      "lon": 21.25614
    }
  },
  {
    "id": 773968,
    "name": "Czarna (podkarpackie, powiat bieszczadzki)",
    "coord": {
      "lat": 49.331161,
      "lon": 22.65896
    }
  },
  {
    "id": 7533545,
    "name": "Czarna Białostocka",
    "coord": {
      "lat": 53.302299,
      "lon": 23.267799
    }
  },
  {
    "id": 7535732,
    "name": "Czarna Dąbrówka",
    "coord": {
      "lat": 54.356312,
      "lon": 17.56456
    }
  },
  {
    "id": 773935,
    "name": "Czarna Góra",
    "coord": {
      "lat": 49.376621,
      "lon": 20.13047
    }
  },
  {
    "id": 7531169,
    "name": "Czarna Woda",
    "coord": {
      "lat": 53.847801,
      "lon": 18.1373
    }
  },
  {
    "id": 3101161,
    "name": "Czarne",
    "coord": {
      "lat": 53.6842,
      "lon": 16.938339
    }
  },
  {
    "id": 773902,
    "name": "Czarnia",
    "coord": {
      "lat": 53.35614,
      "lon": 21.1952
    }
  },
  {
    "id": 3101145,
    "name": "Czarnków",
    "coord": {
      "lat": 52.902142,
      "lon": 16.564131
    }
  },
  {
    "id": 773898,
    "name": "Czarnochowice",
    "coord": {
      "lat": 50.004711,
      "lon": 20.0679
    }
  },
  {
    "id": 773897,
    "name": "Czarnocin (świętokrzyskie)",
    "coord": {
      "lat": 50.340801,
      "lon": 20.516199
    }
  },
  {
    "id": 3101136,
    "name": "Czarnocin (łódzkie)",
    "coord": {
      "lat": 51.591419,
      "lon": 19.68158
    }
  },
  {
    "id": 3101128,
    "name": "Czarnowąsy",
    "coord": {
      "lat": 50.72858,
      "lon": 17.89819
    }
  },
  {
    "id": 3101120,
    "name": "Czarnożyły",
    "coord": {
      "lat": 51.285332,
      "lon": 18.56106
    }
  },
  {
    "id": 3101117,
    "name": "Czarny Bór",
    "coord": {
      "lat": 50.770828,
      "lon": 16.130501
    }
  },
  {
    "id": 3101114,
    "name": "Czarny Dunajec",
    "coord": {
      "lat": 49.43663,
      "lon": 19.85161
    }
  },
  {
    "id": 3101089,
    "name": "Czastary",
    "coord": {
      "lat": 51.25869,
      "lon": 18.31953
    }
  },
  {
    "id": 773833,
    "name": "Czaszyn",
    "coord": {
      "lat": 49.44854,
      "lon": 22.216499
    }
  },
  {
    "id": 7533455,
    "name": "Czchów",
    "coord": {
      "lat": 49.8274,
      "lon": 20.660999
    }
  },
  {
    "id": 7533112,
    "name": "Czechowice-Dziedzice",
    "coord": {
      "lat": 49.903999,
      "lon": 19.000401
    }
  },
  {
    "id": 7535712,
    "name": "Czechy",
    "coord": {
      "lat": 51.076241,
      "lon": 16.657681
    }
  },
  {
    "id": 7531551,
    "name": "Czeladź",
    "coord": {
      "lat": 50.319191,
      "lon": 19.08231
    }
  },
  {
    "id": 773808,
    "name": "Czemierniki",
    "coord": {
      "lat": 51.672981,
      "lon": 22.63887
    }
  },
  {
    "id": 3101053,
    "name": "Czempiń",
    "coord": {
      "lat": 52.144039,
      "lon": 16.76408
    }
  },
  {
    "id": 773802,
    "name": "Czeremcha",
    "coord": {
      "lat": 52.51667,
      "lon": 23.35
    }
  },
  {
    "id": 773797,
    "name": "Czermin (podkarpackie)",
    "coord": {
      "lat": 50.339111,
      "lon": 21.333561
    }
  },
  {
    "id": 3101038,
    "name": "Czermin (wielkopolskie)",
    "coord": {
      "lat": 51.950081,
      "lon": 17.749571
    }
  },
  {
    "id": 3101034,
    "name": "Czermna",
    "coord": {
      "lat": 50.450401,
      "lon": 16.23831
    }
  },
  {
    "id": 3101017,
    "name": "Czernica (dolnośląskie)",
    "coord": {
      "lat": 51.046089,
      "lon": 17.2451
    }
  },
  {
    "id": 3101019,
    "name": "Czernica (śląskie)",
    "coord": {
      "lat": 50.083912,
      "lon": 18.400681
    }
  },
  {
    "id": 773780,
    "name": "Czernice Borowe",
    "coord": {
      "lat": 53.031971,
      "lon": 20.71944
    }
  },
  {
    "id": 3101009,
    "name": "Czernichów (małopolskie)",
    "coord": {
      "lat": 49.989201,
      "lon": 19.68115
    }
  },
  {
    "id": 3101010,
    "name": "Czernichów (śląskie)",
    "coord": {
      "lat": 49.754429,
      "lon": 19.209471
    }
  },
  {
    "id": 3101006,
    "name": "Czerniejewo",
    "coord": {
      "lat": 52.426399,
      "lon": 17.48925
    }
  },
  {
    "id": 773765,
    "name": "Czerniewice (łódzkie)",
    "coord": {
      "lat": 51.65419,
      "lon": 20.155531
    }
  },
  {
    "id": 3101004,
    "name": "Czerniewice (kujawsko-pomorskie)",
    "coord": {
      "lat": 52.51157,
      "lon": 19.086941
    }
  },
  {
    "id": 3100994,
    "name": "Czernikowo",
    "coord": {
      "lat": 52.94688,
      "lon": 18.93803
    }
  },
  {
    "id": 3100984,
    "name": "Czersk",
    "coord": {
      "lat": 53.795891,
      "lon": 17.976471
    }
  },
  {
    "id": 3100976,
    "name": "Czerwieńsk",
    "coord": {
      "lat": 52.01289,
      "lon": 15.42317
    }
  },
  {
    "id": 773753,
    "name": "Czerwin",
    "coord": {
      "lat": 52.949051,
      "lon": 21.758421
    }
  },
  {
    "id": 7533185,
    "name": "Czerwionka-Leszczyny",
    "coord": {
      "lat": 50.150341,
      "lon": 18.678471
    }
  },
  {
    "id": 773751,
    "name": "Czerwińsk Nad Wisłą",
    "coord": {
      "lat": 52.398281,
      "lon": 20.309601
    }
  },
  {
    "id": 7532888,
    "name": "Czerwińsk nad Wisłą",
    "coord": {
      "lat": 52.434601,
      "lon": 20.3599
    }
  },
  {
    "id": 3100971,
    "name": "Czerwonak",
    "coord": {
      "lat": 52.464588,
      "lon": 16.981689
    }
  },
  {
    "id": 773735,
    "name": "Czerwonka (warmińsko-mazurskie)",
    "coord": {
      "lat": 53.916271,
      "lon": 20.896851
    }
  },
  {
    "id": 773738,
    "name": "Czerwonka (mazowieckie)",
    "coord": {
      "lat": 52.89254,
      "lon": 21.214939
    }
  },
  {
    "id": 773695,
    "name": "Czudec",
    "coord": {
      "lat": 49.94487,
      "lon": 21.841339
    }
  },
  {
    "id": 3100912,
    "name": "Czułów",
    "coord": {
      "lat": 50.059559,
      "lon": 19.701059
    }
  },
  {
    "id": 773676,
    "name": "Czyżew",
    "coord": {
      "lat": 52.79768,
      "lon": 22.31237
    }
  },
  {
    "id": 3100894,
    "name": "Czyżkówko",
    "coord": {
      "lat": 53.141621,
      "lon": 17.96105
    }
  },
  {
    "id": 3100891,
    "name": "Czyżowice",
    "coord": {
      "lat": 49.984901,
      "lon": 18.404329
    }
  },
  {
    "id": 7530964,
    "name": "Częstochowa",
    "coord": {
      "lat": 50.809639,
      "lon": 19.122169
    }
  },
  {
    "id": 3100936,
    "name": "Człopa",
    "coord": {
      "lat": 53.088558,
      "lon": 16.120979
    }
  },
  {
    "id": 7531776,
    "name": "Człuchów",
    "coord": {
      "lat": 53.6647,
      "lon": 17.368
    }
  },
  {
    "id": 3100694,
    "name": "Dalachów",
    "coord": {
      "lat": 51.07732,
      "lon": 18.5784
    }
  },
  {
    "id": 773453,
    "name": "Daleszyce",
    "coord": {
      "lat": 50.802292,
      "lon": 20.807911
    }
  },
  {
    "id": 3100685,
    "name": "Dalików",
    "coord": {
      "lat": 51.884762,
      "lon": 19.11904
    }
  },
  {
    "id": 3100677,
    "name": "Damasławek",
    "coord": {
      "lat": 52.83979,
      "lon": 17.50062
    }
  },
  {
    "id": 3100671,
    "name": "Damnica",
    "coord": {
      "lat": 54.500252,
      "lon": 17.27154
    }
  },
  {
    "id": 7532657,
    "name": "Darłowo",
    "coord": {
      "lat": 54.428501,
      "lon": 16.410601
    }
  },
  {
    "id": 3100624,
    "name": "Daszewice",
    "coord": {
      "lat": 52.300018,
      "lon": 16.95723
    }
  },
  {
    "id": 3100619,
    "name": "Daszyna",
    "coord": {
      "lat": 52.155029,
      "lon": 19.18153
    }
  },
  {
    "id": 3100489,
    "name": "Debrzno",
    "coord": {
      "lat": 53.53817,
      "lon": 17.236429
    }
  },
  {
    "id": 3100465,
    "name": "Deszczno",
    "coord": {
      "lat": 52.66988,
      "lon": 15.31975
    }
  },
  {
    "id": 3100403,
    "name": "Dmosin",
    "coord": {
      "lat": 51.92437,
      "lon": 19.75934
    }
  },
  {
    "id": 773176,
    "name": "Dobczyce",
    "coord": {
      "lat": 49.881088,
      "lon": 20.089359
    }
  },
  {
    "id": 3100400,
    "name": "Dobiegniew",
    "coord": {
      "lat": 52.969471,
      "lon": 15.75362
    }
  },
  {
    "id": 3100382,
    "name": "Dobieszowice",
    "coord": {
      "lat": 50.396969,
      "lon": 19.013041
    }
  },
  {
    "id": 773165,
    "name": "Dobra (małopolskie)",
    "coord": {
      "lat": 49.71793,
      "lon": 20.253469
    }
  },
  {
    "id": 3100363,
    "name": "Dobra (zachodniopomorskie, powiat łobeski)",
    "coord": {
      "lat": 53.58625,
      "lon": 15.30977
    }
  },
  {
    "id": 3100364,
    "name": "Dobra (zachodniopomorskie, powiat policki)",
    "coord": {
      "lat": 53.48835,
      "lon": 14.38617
    }
  },
  {
    "id": 3100366,
    "name": "Dobra (wielkopolskie)",
    "coord": {
      "lat": 51.916641,
      "lon": 18.615561
    }
  },
  {
    "id": 773149,
    "name": "Dobre (mazowieckie)",
    "coord": {
      "lat": 52.320969,
      "lon": 21.67881
    }
  },
  {
    "id": 3100353,
    "name": "Dobre (zachodniopomorskie)",
    "coord": {
      "lat": 54.19994,
      "lon": 16.05386
    }
  },
  {
    "id": 3100355,
    "name": "Dobre (kujawsko-pomorskie)",
    "coord": {
      "lat": 52.683979,
      "lon": 18.57762
    }
  },
  {
    "id": 773148,
    "name": "Dobre Miasto",
    "coord": {
      "lat": 53.986679,
      "lon": 20.39749
    }
  },
  {
    "id": 3100342,
    "name": "Dobrodzień",
    "coord": {
      "lat": 50.728741,
      "lon": 18.445009
    }
  },
  {
    "id": 3100306,
    "name": "Dobroszyce",
    "coord": {
      "lat": 51.267761,
      "lon": 17.342051
    }
  },
  {
    "id": 3100327,
    "name": "Dobroń",
    "coord": {
      "lat": 51.638851,
      "lon": 19.24539
    }
  },
  {
    "id": 3100297,
    "name": "Dobrzany",
    "coord": {
      "lat": 53.359138,
      "lon": 15.42886
    }
  },
  {
    "id": 3100283,
    "name": "Dobrzeń Wielki",
    "coord": {
      "lat": 50.76844,
      "lon": 17.846519
    }
  },
  {
    "id": 3100280,
    "name": "Dobrzyca",
    "coord": {
      "lat": 51.866631,
      "lon": 17.603359
    }
  },
  {
    "id": 773100,
    "name": "Dobrzyniewo Duże",
    "coord": {
      "lat": 53.200218,
      "lon": 23.01129
    }
  },
  {
    "id": 3100266,
    "name": "Dobrzyń nad Wisłą",
    "coord": {
      "lat": 52.638142,
      "lon": 19.31875
    }
  },
  {
    "id": 3100247,
    "name": "Dolice",
    "coord": {
      "lat": 53.190811,
      "lon": 15.20267
    }
  },
  {
    "id": 3100231,
    "name": "Dolsk",
    "coord": {
      "lat": 51.9818,
      "lon": 17.062731
    }
  },
  {
    "id": 773050,
    "name": "Domanice",
    "coord": {
      "lat": 52.037392,
      "lon": 22.17642
    }
  },
  {
    "id": 3100212,
    "name": "Domaniewice",
    "coord": {
      "lat": 52.006229,
      "lon": 19.80294
    }
  },
  {
    "id": 773040,
    "name": "Domaradz",
    "coord": {
      "lat": 49.786751,
      "lon": 21.945709
    }
  },
  {
    "id": 773033,
    "name": "Domaszowice (świętokrzyskie)",
    "coord": {
      "lat": 50.874882,
      "lon": 20.68288
    }
  },
  {
    "id": 3100193,
    "name": "Domaszowice (opolskie)",
    "coord": {
      "lat": 51.0429,
      "lon": 17.88875
    }
  },
  {
    "id": 3100180,
    "name": "Dominowo",
    "coord": {
      "lat": 52.29158,
      "lon": 17.35754
    }
  },
  {
    "id": 7531671,
    "name": "Dopiewo",
    "coord": {
      "lat": 52.357899,
      "lon": 16.709999
    }
  },
  {
    "id": 773014,
    "name": "Dorohusk",
    "coord": {
      "lat": 51.154751,
      "lon": 23.803249
    }
  },
  {
    "id": 3100162,
    "name": "Doruchów",
    "coord": {
      "lat": 51.417191,
      "lon": 18.076969
    }
  },
  {
    "id": 773078,
    "name": "Dołhobyczów",
    "coord": {
      "lat": 50.585911,
      "lon": 24.03594
    }
  },
  {
    "id": 3100148,
    "name": "Drawno",
    "coord": {
      "lat": 53.21986,
      "lon": 15.75946
    }
  },
  {
    "id": 3100142,
    "name": "Drawsko",
    "coord": {
      "lat": 52.85421,
      "lon": 16.03125
    }
  },
  {
    "id": 3100139,
    "name": "Drawsko Pomorskie",
    "coord": {
      "lat": 53.53056,
      "lon": 15.80967
    }
  },
  {
    "id": 772982,
    "name": "Drelów",
    "coord": {
      "lat": 51.912189,
      "lon": 22.871651
    }
  },
  {
    "id": 3100127,
    "name": "Drezdenko",
    "coord": {
      "lat": 52.83831,
      "lon": 15.83078
    }
  },
  {
    "id": 3100124,
    "name": "Drobin",
    "coord": {
      "lat": 52.737751,
      "lon": 19.989281
    }
  },
  {
    "id": 3100116,
    "name": "Drogomyśl",
    "coord": {
      "lat": 49.86964,
      "lon": 18.757271
    }
  },
  {
    "id": 7533298,
    "name": "Drohiczyn",
    "coord": {
      "lat": 52.406399,
      "lon": 22.653999
    }
  },
  {
    "id": 3100086,
    "name": "Drużbice",
    "coord": {
      "lat": 51.463692,
      "lon": 19.394039
    }
  },
  {
    "id": 7532977,
    "name": "Drzewica",
    "coord": {
      "lat": 51.4464,
      "lon": 20.471201
    }
  },
  {
    "id": 3100041,
    "name": "Drzewina",
    "coord": {
      "lat": 54.14505,
      "lon": 18.3881
    }
  },
  {
    "id": 3100027,
    "name": "Drzycim",
    "coord": {
      "lat": 53.505199,
      "lon": 18.309401
    }
  },
  {
    "id": 772897,
    "name": "Dubiecko",
    "coord": {
      "lat": 49.82608,
      "lon": 22.391171
    }
  },
  {
    "id": 772896,
    "name": "Dubienka",
    "coord": {
      "lat": 51.048618,
      "lon": 23.892521
    }
  },
  {
    "id": 772873,
    "name": "Duczki",
    "coord": {
      "lat": 52.362709,
      "lon": 21.29047
    }
  },
  {
    "id": 772857,
    "name": "Dukla",
    "coord": {
      "lat": 49.555538,
      "lon": 21.68317
    }
  },
  {
    "id": 3099993,
    "name": "Duszniki",
    "coord": {
      "lat": 52.446911,
      "lon": 16.406019
    }
  },
  {
    "id": 7531678,
    "name": "Duszniki-Zdrój",
    "coord": {
      "lat": 50.3703,
      "lon": 16.3818
    }
  },
  {
    "id": 772822,
    "name": "Dwikozy",
    "coord": {
      "lat": 50.73613,
      "lon": 21.788639
    }
  },
  {
    "id": 3099974,
    "name": "Dworzysko",
    "coord": {
      "lat": 50.816669,
      "lon": 16.26667
    }
  },
  {
    "id": 772806,
    "name": "Dybków",
    "coord": {
      "lat": 50.17223,
      "lon": 22.628151
    }
  },
  {
    "id": 772793,
    "name": "Dydnia",
    "coord": {
      "lat": 49.686401,
      "lon": 22.171961
    }
  },
  {
    "id": 3099966,
    "name": "Dygowo",
    "coord": {
      "lat": 54.13031,
      "lon": 15.71993
    }
  },
  {
    "id": 772776,
    "name": "Dymitrów Duży",
    "coord": {
      "lat": 50.480179,
      "lon": 21.520189
    }
  },
  {
    "id": 772772,
    "name": "Dynów",
    "coord": {
      "lat": 49.81506,
      "lon": 22.233879
    }
  },
  {
    "id": 772768,
    "name": "Dywity",
    "coord": {
      "lat": 53.837589,
      "lon": 20.47817
    }
  },
  {
    "id": 772758,
    "name": "Dziadkowice",
    "coord": {
      "lat": 52.563801,
      "lon": 22.916889
    }
  },
  {
    "id": 3099934,
    "name": "Dziadowa Kłoda",
    "coord": {
      "lat": 51.235432,
      "lon": 17.70919
    }
  },
  {
    "id": 7532449,
    "name": "Działdowo",
    "coord": {
      "lat": 53.2883,
      "lon": 20.151899
    }
  },
  {
    "id": 772747,
    "name": "Działoszyce",
    "coord": {
      "lat": 50.365341,
      "lon": 20.352261
    }
  },
  {
    "id": 3099923,
    "name": "Działoszyn",
    "coord": {
      "lat": 51.116989,
      "lon": 18.86524
    }
  },
  {
    "id": 772722,
    "name": "Dziekanów Leśny",
    "coord": {
      "lat": 52.352428,
      "lon": 20.85124
    }
  },
  {
    "id": 3099878,
    "name": "Dziemiany",
    "coord": {
      "lat": 54.006359,
      "lon": 17.76755
    }
  },
  {
    "id": 3099873,
    "name": "Dziergowice",
    "coord": {
      "lat": 50.242481,
      "lon": 18.28606
    }
  },
  {
    "id": 772687,
    "name": "Dzierzgowo",
    "coord": {
      "lat": 53.15279,
      "lon": 20.663219
    }
  },
  {
    "id": 3099842,
    "name": "Dzierzgoń",
    "coord": {
      "lat": 53.921959,
      "lon": 19.34705
    }
  },
  {
    "id": 772680,
    "name": "Dzierzkowice",
    "coord": {
      "lat": 50.960201,
      "lon": 22.066389
    }
  },
  {
    "id": 772698,
    "name": "Dzierzążnia",
    "coord": {
      "lat": 52.628109,
      "lon": 20.233641
    }
  },
  {
    "id": 7531351,
    "name": "Dzierżoniów",
    "coord": {
      "lat": 50.729179,
      "lon": 16.64731
    }
  },
  {
    "id": 772667,
    "name": "Dziewin",
    "coord": {
      "lat": 50.075539,
      "lon": 20.45491
    }
  },
  {
    "id": 3099778,
    "name": "Dziećmorowice",
    "coord": {
      "lat": 50.76947,
      "lon": 16.352119
    }
  },
  {
    "id": 772662,
    "name": "Dzikowiec",
    "coord": {
      "lat": 50.272881,
      "lon": 21.843651
    }
  },
  {
    "id": 772658,
    "name": "Dzików Stary",
    "coord": {
      "lat": 50.24699,
      "lon": 22.92984
    }
  },
  {
    "id": 3099783,
    "name": "Dziwnów",
    "coord": {
      "lat": 54.028191,
      "lon": 14.76691
    }
  },
  {
    "id": 3099887,
    "name": "Dzięgielów",
    "coord": {
      "lat": 49.722591,
      "lon": 18.70491
    }
  },
  {
    "id": 772641,
    "name": "Dzwola",
    "coord": {
      "lat": 50.696571,
      "lon": 22.567289
    }
  },
  {
    "id": 3100880,
    "name": "Dąbie (wielkopolskie)",
    "coord": {
      "lat": 52.086681,
      "lon": 18.8225
    }
  },
  {
    "id": 3100881,
    "name": "Dąbie (lubuskie)",
    "coord": {
      "lat": 52.010559,
      "lon": 15.15221
    }
  },
  {
    "id": 3100883,
    "name": "Dąbie (małopolskie, Kraków)",
    "coord": {
      "lat": 50.066669,
      "lon": 19.98333
    }
  },
  {
    "id": 3100871,
    "name": "Dąbie Dolne",
    "coord": {
      "lat": 50.333328,
      "lon": 19.133329
    }
  },
  {
    "id": 3100820,
    "name": "Dąbrowa (kujawsko-pomorskie)",
    "coord": {
      "lat": 52.746681,
      "lon": 17.94342
    }
  },
  {
    "id": 3100849,
    "name": "Dąbrowa (opolskie)",
    "coord": {
      "lat": 50.683521,
      "lon": 17.749571
    }
  },
  {
    "id": 773593,
    "name": "Dąbrowa Białostocka",
    "coord": {
      "lat": 53.653641,
      "lon": 23.347919
    }
  },
  {
    "id": 3100802,
    "name": "Dąbrowa Chełmińska",
    "coord": {
      "lat": 53.175179,
      "lon": 18.30537
    }
  },
  {
    "id": 3100796,
    "name": "Dąbrowa Górnicza",
    "coord": {
      "lat": 50.31818,
      "lon": 19.2374
    }
  },
  {
    "id": 7533303,
    "name": "Dąbrowa Tarnowska",
    "coord": {
      "lat": 50.1698,
      "lon": 20.9949
    }
  },
  {
    "id": 3100778,
    "name": "Dąbrowa Zielona",
    "coord": {
      "lat": 50.843941,
      "lon": 19.55652
    }
  },
  {
    "id": 3100772,
    "name": "Dąbrowice",
    "coord": {
      "lat": 52.31142,
      "lon": 19.08437
    }
  },
  {
    "id": 773525,
    "name": "Dąbrówka",
    "coord": {
      "lat": 52.483879,
      "lon": 21.297939
    }
  },
  {
    "id": 773496,
    "name": "Dąbrówka Starzeńska",
    "coord": {
      "lat": 49.778759,
      "lon": 22.23658
    }
  },
  {
    "id": 773478,
    "name": "Dąbrówno",
    "coord": {
      "lat": 53.434078,
      "lon": 20.03529
    }
  },
  {
    "id": 773386,
    "name": "Dębe Wielkie",
    "coord": {
      "lat": 52.199612,
      "lon": 21.44334
    }
  },
  {
    "id": 7531275,
    "name": "Dębica",
    "coord": {
      "lat": 50.045952,
      "lon": 21.4158
    }
  },
  {
    "id": 3100594,
    "name": "Dębiec",
    "coord": {
      "lat": 52.366669,
      "lon": 16.91667
    }
  },
  {
    "id": 7532275,
    "name": "Dęblin",
    "coord": {
      "lat": 51.567299,
      "lon": 21.8743
    }
  },
  {
    "id": 3100553,
    "name": "Dębnica Kaszubska",
    "coord": {
      "lat": 54.378311,
      "lon": 17.16116
    }
  },
  {
    "id": 773340,
    "name": "Dębno (podkarpackie)",
    "coord": {
      "lat": 50.198109,
      "lon": 22.51837
    }
  },
  {
    "id": 773341,
    "name": "Dębno (małopolskie)",
    "coord": {
      "lat": 49.96701,
      "lon": 20.71979
    }
  },
  {
    "id": 7533158,
    "name": "Dębno (zachodniopomorskie)",
    "coord": {
      "lat": 52.741402,
      "lon": 14.6952
    }
  },
  {
    "id": 773326,
    "name": "Dębowa Kłoda",
    "coord": {
      "lat": 51.59446,
      "lon": 23.006399
    }
  },
  {
    "id": 7532071,
    "name": "Dębowa Łąka",
    "coord": {
      "lat": 53.230202,
      "lon": 19.063
    }
  },
  {
    "id": 773320,
    "name": "Dębowiec (podkarpackie)",
    "coord": {
      "lat": 49.683739,
      "lon": 21.46068
    }
  },
  {
    "id": 3100515,
    "name": "Dębowiec (śląskie)",
    "coord": {
      "lat": 49.81406,
      "lon": 18.720619
    }
  },
  {
    "id": 773332,
    "name": "Dębów",
    "coord": {
      "lat": 50.044899,
      "lon": 22.43614
    }
  },
  {
    "id": 773250,
    "name": "Długie",
    "coord": {
      "lat": 49.578659,
      "lon": 22.043381
    }
  },
  {
    "id": 3100429,
    "name": "Długomiłowice",
    "coord": {
      "lat": 50.282982,
      "lon": 18.148729
    }
  },
  {
    "id": 773217,
    "name": "Długosiodło",
    "coord": {
      "lat": 52.759979,
      "lon": 21.591829
    }
  },
  {
    "id": 3100421,
    "name": "Długołęka",
    "coord": {
      "lat": 51.17902,
      "lon": 17.19137
    }
  },
  {
    "id": 3100417,
    "name": "Dłutów",
    "coord": {
      "lat": 51.559361,
      "lon": 19.391979
    }
  },
  {
    "id": 772644,
    "name": "Dźwierzuty",
    "coord": {
      "lat": 53.704941,
      "lon": 20.960369
    }
  },
  {
    "id": 3099759,
    "name": "Elbląg",
    "coord": {
      "lat": 54.152199,
      "lon": 19.40884
    }
  },
  {
    "id": 7531646,
    "name": "Ełk",
    "coord": {
      "lat": 53.823898,
      "lon": 22.3598
    }
  },
  {
    "id": 3099720,
    "name": "Fabianki",
    "coord": {
      "lat": 52.719292,
      "lon": 19.10943
    }
  },
  {
    "id": 772584,
    "name": "Fajsławice",
    "coord": {
      "lat": 51.095921,
      "lon": 22.96323
    }
  },
  {
    "id": 772561,
    "name": "Fałków",
    "coord": {
      "lat": 51.136059,
      "lon": 20.1061
    }
  },
  {
    "id": 3099679,
    "name": "Filipowice",
    "coord": {
      "lat": 50.155731,
      "lon": 19.56579
    }
  },
  {
    "id": 772528,
    "name": "Filipów",
    "coord": {
      "lat": 54.18037,
      "lon": 22.62076
    }
  },
  {
    "id": 772518,
    "name": "Firlej",
    "coord": {
      "lat": 51.558819,
      "lon": 22.50841
    }
  },
  {
    "id": 3099677,
    "name": "Firoga",
    "coord": {
      "lat": 54.377029,
      "lon": 18.48527
    }
  },
  {
    "id": 3099654,
    "name": "Fordon",
    "coord": {
      "lat": 53.148209,
      "lon": 18.170361
    }
  },
  {
    "id": 3099649,
    "name": "Fosowskie",
    "coord": {
      "lat": 50.658249,
      "lon": 18.364389
    }
  },
  {
    "id": 7533385,
    "name": "Frampol",
    "coord": {
      "lat": 50.674,
      "lon": 22.6651
    }
  },
  {
    "id": 3099640,
    "name": "Frank",
    "coord": {
      "lat": 53.89962,
      "lon": 18.23307
    }
  },
  {
    "id": 7531309,
    "name": "Fredropol",
    "coord": {
      "lat": 49.650162,
      "lon": 22.69656
    }
  },
  {
    "id": 7533069,
    "name": "Frombork",
    "coord": {
      "lat": 54.358101,
      "lon": 19.685801
    }
  },
  {
    "id": 3099630,
    "name": "Frydek",
    "coord": {
      "lat": 49.996262,
      "lon": 19.072781
    }
  },
  {
    "id": 772467,
    "name": "Frydman",
    "coord": {
      "lat": 49.449268,
      "lon": 20.22961
    }
  },
  {
    "id": 3099629,
    "name": "Frydrychowice",
    "coord": {
      "lat": 49.904812,
      "lon": 19.419359
    }
  },
  {
    "id": 7532395,
    "name": "Frysztak",
    "coord": {
      "lat": 49.8409,
      "lon": 21.568899
    }
  },
  {
    "id": 3099568,
    "name": "Gajewo",
    "coord": {
      "lat": 53.566212,
      "lon": 15.78717
    }
  },
  {
    "id": 3099544,
    "name": "Galewice",
    "coord": {
      "lat": 51.344711,
      "lon": 18.257561
    }
  },
  {
    "id": 772372,
    "name": "Garbatka-Letnisko",
    "coord": {
      "lat": 51.4832,
      "lon": 21.61079
    }
  },
  {
    "id": 772366,
    "name": "Garbów",
    "coord": {
      "lat": 51.355171,
      "lon": 22.32937
    }
  },
  {
    "id": 3099498,
    "name": "Garcz",
    "coord": {
      "lat": 54.347599,
      "lon": 18.10169
    }
  },
  {
    "id": 3099494,
    "name": "Gardawice",
    "coord": {
      "lat": 50.116669,
      "lon": 18.799999
    }
  },
  {
    "id": 3099492,
    "name": "Gardeja",
    "coord": {
      "lat": 53.611252,
      "lon": 18.946871
    }
  },
  {
    "id": 7532094,
    "name": "Garwolin",
    "coord": {
      "lat": 51.895901,
      "lon": 21.6231
    }
  },
  {
    "id": 3099452,
    "name": "Gaszowice",
    "coord": {
      "lat": 50.108582,
      "lon": 18.43042
    }
  },
  {
    "id": 3099445,
    "name": "Gaworzyce",
    "coord": {
      "lat": 51.627731,
      "lon": 15.88198
    }
  },
  {
    "id": 772455,
    "name": "Gać",
    "coord": {
      "lat": 50.026932,
      "lon": 22.35898
    }
  },
  {
    "id": 772410,
    "name": "Gałachy",
    "coord": {
      "lat": 52.433411,
      "lon": 20.63335
    }
  },
  {
    "id": 3099529,
    "name": "Gałków Mały",
    "coord": {
      "lat": 51.72554,
      "lon": 19.713591
    }
  },
  {
    "id": 7531002,
    "name": "Gdańsk",
    "coord": {
      "lat": 54.361118,
      "lon": 18.68976
    }
  },
  {
    "id": 3099424,
    "name": "Gdynia",
    "coord": {
      "lat": 54.51889,
      "lon": 18.531879
    }
  },
  {
    "id": 772270,
    "name": "Gdów",
    "coord": {
      "lat": 49.90818,
      "lon": 20.19879
    }
  },
  {
    "id": 3099391,
    "name": "Gidle",
    "coord": {
      "lat": 50.96199,
      "lon": 19.471809
    }
  },
  {
    "id": 3099388,
    "name": "Giebułtów",
    "coord": {
      "lat": 50.145561,
      "lon": 19.878559
    }
  },
  {
    "id": 772248,
    "name": "Giedlarowa",
    "coord": {
      "lat": 50.226891,
      "lon": 22.40593
    }
  },
  {
    "id": 772236,
    "name": "Gielniów",
    "coord": {
      "lat": 51.400761,
      "lon": 20.48126
    }
  },
  {
    "id": 3099372,
    "name": "Gierałtowice (małopolskie)",
    "coord": {
      "lat": 49.94426,
      "lon": 19.390699
    }
  },
  {
    "id": 7532201,
    "name": "Gierałtowice (śląskie)",
    "coord": {
      "lat": 50.2253,
      "lon": 18.7304
    }
  },
  {
    "id": 772220,
    "name": "Gierzwałd",
    "coord": {
      "lat": 53.541279,
      "lon": 20.088671
    }
  },
  {
    "id": 772227,
    "name": "Gierłoż",
    "coord": {
      "lat": 54.081341,
      "lon": 21.49551
    }
  },
  {
    "id": 7532866,
    "name": "Gietrzwałd",
    "coord": {
      "lat": 53.724201,
      "lon": 20.262199
    }
  },
  {
    "id": 3099351,
    "name": "Gilowice (śląskie, powiat pszczyński)",
    "coord": {
      "lat": 49.995049,
      "lon": 19.09613
    }
  },
  {
    "id": 3099352,
    "name": "Gilowice (śląskie, powiat żywiecki)",
    "coord": {
      "lat": 49.712769,
      "lon": 19.31045
    }
  },
  {
    "id": 7531714,
    "name": "Gizałki",
    "coord": {
      "lat": 52.046001,
      "lon": 17.838301
    }
  },
  {
    "id": 7531922,
    "name": "Giżycko",
    "coord": {
      "lat": 54.025101,
      "lon": 21.757299
    }
  },
  {
    "id": 3099285,
    "name": "Glemieniec",
    "coord": {
      "lat": 49.721149,
      "lon": 19.160669
    }
  },
  {
    "id": 3099268,
    "name": "Glinica",
    "coord": {
      "lat": 50.728199,
      "lon": 16.344
    }
  },
  {
    "id": 3099260,
    "name": "Glinka",
    "coord": {
      "lat": 50.12566,
      "lon": 18.968519
    }
  },
  {
    "id": 772107,
    "name": "Glinojeck",
    "coord": {
      "lat": 52.819832,
      "lon": 20.291981
    }
  },
  {
    "id": 7530857,
    "name": "Gliwice",
    "coord": {
      "lat": 50.301159,
      "lon": 18.64983
    }
  },
  {
    "id": 6690131,
    "name": "Gmina Gołcza",
    "coord": {
      "lat": 50.337139,
      "lon": 19.92448
    }
  },
  {
    "id": 3099134,
    "name": "Gniazdów",
    "coord": {
      "lat": 50.59621,
      "lon": 19.11132
    }
  },
  {
    "id": 3099129,
    "name": "Gniechowice",
    "coord": {
      "lat": 50.988041,
      "lon": 16.83363
    }
  },
  {
    "id": 7533553,
    "name": "Gniew",
    "coord": {
      "lat": 53.841,
      "lon": 18.811399
    }
  },
  {
    "id": 3099125,
    "name": "Gniewino",
    "coord": {
      "lat": 54.717091,
      "lon": 18.01663
    }
  },
  {
    "id": 3099120,
    "name": "Gniewkowo",
    "coord": {
      "lat": 52.894611,
      "lon": 18.40785
    }
  },
  {
    "id": 7531632,
    "name": "Gniezno",
    "coord": {
      "lat": 52.524921,
      "lon": 17.603279
    }
  },
  {
    "id": 3099113,
    "name": "Gnieżdżewo",
    "coord": {
      "lat": 54.74741,
      "lon": 18.37944
    }
  },
  {
    "id": 772023,
    "name": "Gnojnik",
    "coord": {
      "lat": 49.89397,
      "lon": 20.608629
    }
  },
  {
    "id": 772021,
    "name": "Gnojno",
    "coord": {
      "lat": 50.602631,
      "lon": 20.849131
    }
  },
  {
    "id": 3099095,
    "name": "Goczałkowice Zdrój",
    "coord": {
      "lat": 49.944538,
      "lon": 18.969271
    }
  },
  {
    "id": 771993,
    "name": "Godzianów",
    "coord": {
      "lat": 51.896938,
      "lon": 20.035891
    }
  },
  {
    "id": 3099063,
    "name": "Godziszewy",
    "coord": {
      "lat": 53.05946,
      "lon": 19.48056
    }
  },
  {
    "id": 3099062,
    "name": "Godziszka",
    "coord": {
      "lat": 49.712879,
      "lon": 19.075871
    }
  },
  {
    "id": 771985,
    "name": "Godziszów",
    "coord": {
      "lat": 50.74889,
      "lon": 22.49794
    }
  },
  {
    "id": 7576107,
    "name": "Godziszów Pierwszy",
    "coord": {
      "lat": 50.75753,
      "lon": 22.48386
    }
  },
  {
    "id": 3099084,
    "name": "Godów",
    "coord": {
      "lat": 49.924809,
      "lon": 18.4783
    }
  },
  {
    "id": 7533227,
    "name": "Gogolin",
    "coord": {
      "lat": 50.4888,
      "lon": 18.022301
    }
  },
  {
    "id": 771955,
    "name": "Golcowa",
    "coord": {
      "lat": 49.771622,
      "lon": 22.025009
    }
  },
  {
    "id": 3098991,
    "name": "Golczewo",
    "coord": {
      "lat": 53.824261,
      "lon": 14.97847
    }
  },
  {
    "id": 7533390,
    "name": "Goleniów",
    "coord": {
      "lat": 53.5606,
      "lon": 14.8382
    }
  },
  {
    "id": 3098959,
    "name": "Goleszów",
    "coord": {
      "lat": 49.735802,
      "lon": 18.73675
    }
  },
  {
    "id": 3098949,
    "name": "Golina (wielkopolskie, powiat koniński)",
    "coord": {
      "lat": 52.243149,
      "lon": 18.09268
    }
  },
  {
    "id": 3098950,
    "name": "Golina(wielkopolskie, powiat jarociński)",
    "coord": {
      "lat": 51.91489,
      "lon": 17.482679
    }
  },
  {
    "id": 7531312,
    "name": "Golub-Dobrzyń",
    "coord": {
      "lat": 53.112228,
      "lon": 19.05414
    }
  },
  {
    "id": 3098909,
    "name": "Gomunice",
    "coord": {
      "lat": 51.1689,
      "lon": 19.493349
    }
  },
  {
    "id": 771893,
    "name": "Goniadz",
    "coord": {
      "lat": 53.489529,
      "lon": 22.735781
    }
  },
  {
    "id": 7532897,
    "name": "Goraj",
    "coord": {
      "lat": 50.7323,
      "lon": 22.7006
    }
  },
  {
    "id": 3098854,
    "name": "Gorenice",
    "coord": {
      "lat": 50.208,
      "lon": 19.62038
    }
  },
  {
    "id": 7532785,
    "name": "Gorlice",
    "coord": {
      "lat": 49.666302,
      "lon": 21.165899
    }
  },
  {
    "id": 771803,
    "name": "Gorliczyna",
    "coord": {
      "lat": 50.092171,
      "lon": 22.48764
    }
  },
  {
    "id": 3098735,
    "name": "Gorzkowice",
    "coord": {
      "lat": 51.215328,
      "lon": 19.59626
    }
  },
  {
    "id": 771735,
    "name": "Gorzków",
    "coord": {
      "lat": 50.947781,
      "lon": 23.012671
    }
  },
  {
    "id": 771731,
    "name": "Gorzyce (podkarpackie)",
    "coord": {
      "lat": 50.12841,
      "lon": 22.57926
    }
  },
  {
    "id": 3098709,
    "name": "Gorzyce (śląskie)",
    "coord": {
      "lat": 49.95945,
      "lon": 18.39884
    }
  },
  {
    "id": 7532194,
    "name": "Gorzyce",
    "coord": {
      "lat": 50.668289,
      "lon": 21.838421
    }
  },
  {
    "id": 3098702,
    "name": "Gorzyce Wielkie",
    "coord": {
      "lat": 51.637249,
      "lon": 17.72953
    }
  },
  {
    "id": 3098699,
    "name": "Gorzyczki",
    "coord": {
      "lat": 49.94912,
      "lon": 18.403299
    }
  },
  {
    "id": 3098693,
    "name": "Gorzyniec",
    "coord": {
      "lat": 50.853512,
      "lon": 15.57928
    }
  },
  {
    "id": 3098722,
    "name": "Gorzów Wielkopolski",
    "coord": {
      "lat": 52.73679,
      "lon": 15.22878
    }
  },
  {
    "id": 3098723,
    "name": "Gorzów Śląski",
    "coord": {
      "lat": 51.028709,
      "lon": 18.42304
    }
  },
  {
    "id": 3098636,
    "name": "Gostkowo",
    "coord": {
      "lat": 54.223331,
      "lon": 17.476
    }
  },
  {
    "id": 3098629,
    "name": "Gostycyn",
    "coord": {
      "lat": 53.490139,
      "lon": 17.80978
    }
  },
  {
    "id": 7531533,
    "name": "Gostynin",
    "coord": {
      "lat": 52.42424,
      "lon": 19.46258
    }
  },
  {
    "id": 3098626,
    "name": "Gostyń (śląskie)",
    "coord": {
      "lat": 50.105282,
      "lon": 18.88241
    }
  },
  {
    "id": 7533239,
    "name": "Gostyń (wielkopolskie)",
    "coord": {
      "lat": 51.882702,
      "lon": 17.0091
    }
  },
  {
    "id": 3098613,
    "name": "Goszczanów",
    "coord": {
      "lat": 51.79163,
      "lon": 18.505699
    }
  },
  {
    "id": 771690,
    "name": "Goszczyn",
    "coord": {
      "lat": 51.731869,
      "lon": 20.85154
    }
  },
  {
    "id": 771687,
    "name": "Gowarczów",
    "coord": {
      "lat": 51.27845,
      "lon": 20.438351
    }
  },
  {
    "id": 771683,
    "name": "Goworowo",
    "coord": {
      "lat": 52.900829,
      "lon": 21.55578
    }
  },
  {
    "id": 3098583,
    "name": "Gozdnica",
    "coord": {
      "lat": 51.436298,
      "lon": 15.09856
    }
  },
  {
    "id": 3098575,
    "name": "Gozdowo",
    "coord": {
      "lat": 52.724548,
      "lon": 19.685011
    }
  },
  {
    "id": 3098579,
    "name": "Gozdów",
    "coord": {
      "lat": 52.192299,
      "lon": 18.59857
    }
  },
  {
    "id": 3099016,
    "name": "Gołańcz",
    "coord": {
      "lat": 52.94326,
      "lon": 17.29995
    }
  },
  {
    "id": 7533380,
    "name": "Gołdap",
    "coord": {
      "lat": 54.313099,
      "lon": 22.2983
    }
  },
  {
    "id": 3098938,
    "name": "Gołkowice",
    "coord": {
      "lat": 49.914181,
      "lon": 18.514191
    }
  },
  {
    "id": 3098923,
    "name": "Gołuchów",
    "coord": {
      "lat": 51.850361,
      "lon": 17.9314
    }
  },
  {
    "id": 771901,
    "name": "Gołymin-Ośrodek",
    "coord": {
      "lat": 52.807999,
      "lon": 20.873249
    }
  },
  {
    "id": 771973,
    "name": "Gołąbki",
    "coord": {
      "lat": 52.20319,
      "lon": 20.859779
    }
  },
  {
    "id": 3098686,
    "name": "Gościcino",
    "coord": {
      "lat": 54.604591,
      "lon": 18.154909
    }
  },
  {
    "id": 771723,
    "name": "Gościeradów",
    "coord": {
      "lat": 50.868591,
      "lon": 22.00536
    }
  },
  {
    "id": 3098665,
    "name": "Gościno",
    "coord": {
      "lat": 54.051231,
      "lon": 15.65256
    }
  },
  {
    "id": 771712,
    "name": "Goślinki",
    "coord": {
      "lat": 51.794559,
      "lon": 20.471581
    }
  },
  {
    "id": 7531089,
    "name": "Grabica",
    "coord": {
      "lat": 51.478458,
      "lon": 19.540239
    }
  },
  {
    "id": 771590,
    "name": "Grabowiec",
    "coord": {
      "lat": 50.8209,
      "lon": 23.55057
    }
  },
  {
    "id": 771566,
    "name": "Grabownica Starzeńska",
    "coord": {
      "lat": 49.658958,
      "lon": 22.077539
    }
  },
  {
    "id": 3098453,
    "name": "Grabowo Kościerskie",
    "coord": {
      "lat": 54.168159,
      "lon": 18.146919
    }
  },
  {
    "id": 3098502,
    "name": "Grabów",
    "coord": {
      "lat": 52.127171,
      "lon": 19.002569
    }
  },
  {
    "id": 771545,
    "name": "Grabów Rycki",
    "coord": {
      "lat": 51.674759,
      "lon": 22.08506
    }
  },
  {
    "id": 3098470,
    "name": "Grabów nad Prosną",
    "coord": {
      "lat": 51.505959,
      "lon": 18.119289
    }
  },
  {
    "id": 7532934,
    "name": "Grajewo",
    "coord": {
      "lat": 53.640099,
      "lon": 22.450899
    }
  },
  {
    "id": 771497,
    "name": "Granica",
    "coord": {
      "lat": 52.133591,
      "lon": 20.803129
    }
  },
  {
    "id": 3098394,
    "name": "Granowo",
    "coord": {
      "lat": 52.222439,
      "lon": 16.528589
    }
  },
  {
    "id": 3098333,
    "name": "Grodków",
    "coord": {
      "lat": 50.69836,
      "lon": 17.384489
    }
  },
  {
    "id": 3098306,
    "name": "Grodziec (śląskie)",
    "coord": {
      "lat": 50.347542,
      "lon": 19.072269
    }
  },
  {
    "id": 3098309,
    "name": "Grodziec (wielkopolskie)",
    "coord": {
      "lat": 52.038551,
      "lon": 18.059719
    }
  },
  {
    "id": 7533507,
    "name": "Grodzisk Mazowiecki",
    "coord": {
      "lat": 52.105202,
      "lon": 20.6332
    }
  },
  {
    "id": 7533383,
    "name": "Grodzisk Wielkopolski",
    "coord": {
      "lat": 52.226101,
      "lon": 16.365999
    }
  },
  {
    "id": 771394,
    "name": "Grodzisko Dolne",
    "coord": {
      "lat": 50.16238,
      "lon": 22.462919
    }
  },
  {
    "id": 771392,
    "name": "Grodzisko Górne",
    "coord": {
      "lat": 50.186901,
      "lon": 22.43786
    }
  },
  {
    "id": 3098276,
    "name": "Grojec (małopolskie, powiat chrzanowski)",
    "coord": {
      "lat": 50.089748,
      "lon": 19.557039
    }
  },
  {
    "id": 3098277,
    "name": "Grojec (małopolskie, powiat oświęcimski)",
    "coord": {
      "lat": 49.981468,
      "lon": 19.237921
    }
  },
  {
    "id": 771381,
    "name": "Gromada",
    "coord": {
      "lat": 50.561981,
      "lon": 22.70785
    }
  },
  {
    "id": 3098267,
    "name": "Gromadka",
    "coord": {
      "lat": 51.36063,
      "lon": 15.76452
    }
  },
  {
    "id": 771374,
    "name": "Gromnik",
    "coord": {
      "lat": 49.838428,
      "lon": 20.961229
    }
  },
  {
    "id": 3098240,
    "name": "Gronowo Elbląskie",
    "coord": {
      "lat": 54.08588,
      "lon": 19.305981
    }
  },
  {
    "id": 3098239,
    "name": "Gronowo Górne",
    "coord": {
      "lat": 54.13863,
      "lon": 19.459881
    }
  },
  {
    "id": 771348,
    "name": "Grudki",
    "coord": {
      "lat": 53.094879,
      "lon": 23.66848
    }
  },
  {
    "id": 771343,
    "name": "Grudusk",
    "coord": {
      "lat": 53.058449,
      "lon": 20.624941
    }
  },
  {
    "id": 7530969,
    "name": "Grudziądz",
    "coord": {
      "lat": 53.472462,
      "lon": 18.77849
    }
  },
  {
    "id": 771336,
    "name": "Grunwald",
    "coord": {
      "lat": 53.484219,
      "lon": 20.09425
    }
  },
  {
    "id": 771317,
    "name": "Gruszów Wielki",
    "coord": {
      "lat": 50.191631,
      "lon": 21.031441
    }
  },
  {
    "id": 3098204,
    "name": "Gruta",
    "coord": {
      "lat": 53.453152,
      "lon": 18.957001
    }
  },
  {
    "id": 771313,
    "name": "Grybów",
    "coord": {
      "lat": 49.62439,
      "lon": 20.947969
    }
  },
  {
    "id": 7533059,
    "name": "Gryfice",
    "coord": {
      "lat": 53.917099,
      "lon": 15.2028
    }
  },
  {
    "id": 7533423,
    "name": "Gryfino",
    "coord": {
      "lat": 53.256001,
      "lon": 14.4967
    }
  },
  {
    "id": 7533278,
    "name": "Gryfów Śląski",
    "coord": {
      "lat": 51.026199,
      "lon": 15.4195
    }
  },
  {
    "id": 3098182,
    "name": "Grzechynia",
    "coord": {
      "lat": 49.7136,
      "lon": 19.645611
    }
  },
  {
    "id": 7531656,
    "name": "Grzegorzew",
    "coord": {
      "lat": 52.212601,
      "lon": 18.761299
    }
  },
  {
    "id": 771288,
    "name": "Grzegorzówka",
    "coord": {
      "lat": 49.932869,
      "lon": 22.201309
    }
  },
  {
    "id": 3098163,
    "name": "Grzmiąca",
    "coord": {
      "lat": 53.837341,
      "lon": 16.43512
    }
  },
  {
    "id": 771275,
    "name": "Grzybowa Góra",
    "coord": {
      "lat": 51.133259,
      "lon": 20.96174
    }
  },
  {
    "id": 6640020,
    "name": "Grzybowo",
    "coord": {
      "lat": 54.15892,
      "lon": 15.48557
    }
  },
  {
    "id": 771286,
    "name": "Grzęska",
    "coord": {
      "lat": 50.083031,
      "lon": 22.453991
    }
  },
  {
    "id": 3098334,
    "name": "Gródków",
    "coord": {
      "lat": 50.362659,
      "lon": 19.10557
    }
  },
  {
    "id": 771384,
    "name": "Grójec",
    "coord": {
      "lat": 51.862518,
      "lon": 20.867571
    }
  },
  {
    "id": 771481,
    "name": "Grębków",
    "coord": {
      "lat": 52.26931,
      "lon": 21.90974
    }
  },
  {
    "id": 3098380,
    "name": "Grębocice",
    "coord": {
      "lat": 51.599091,
      "lon": 16.16741
    }
  },
  {
    "id": 771478,
    "name": "Gręboszów",
    "coord": {
      "lat": 50.24501,
      "lon": 20.77669
    }
  },
  {
    "id": 771477,
    "name": "Grębów",
    "coord": {
      "lat": 50.565361,
      "lon": 21.874041
    }
  },
  {
    "id": 7532114,
    "name": "Gubin",
    "coord": {
      "lat": 51.957199,
      "lon": 14.749
    }
  },
  {
    "id": 771210,
    "name": "Gutwin",
    "coord": {
      "lat": 50.96685,
      "lon": 21.400961
    }
  },
  {
    "id": 771192,
    "name": "Guzów",
    "coord": {
      "lat": 52.116261,
      "lon": 20.33672
    }
  },
  {
    "id": 771173,
    "name": "Gwoźnica Górna",
    "coord": {
      "lat": 49.827911,
      "lon": 21.997721
    }
  },
  {
    "id": 7531441,
    "name": "Gzy",
    "coord": {
      "lat": 52.74128,
      "lon": 20.945431
    }
  },
  {
    "id": 3098898,
    "name": "Góra (dolnośląskie)",
    "coord": {
      "lat": 51.666382,
      "lon": 16.534941
    }
  },
  {
    "id": 3098901,
    "name": "Góra (śląskie)",
    "coord": {
      "lat": 49.97971,
      "lon": 19.10471
    }
  },
  {
    "id": 771870,
    "name": "Góra Kalwaria",
    "coord": {
      "lat": 51.976528,
      "lon": 21.21537
    }
  },
  {
    "id": 771866,
    "name": "Góra Ropczycka",
    "coord": {
      "lat": 50.054379,
      "lon": 21.686501
    }
  },
  {
    "id": 3098871,
    "name": "Góra Świętej Małgorzaty",
    "coord": {
      "lat": 52.057129,
      "lon": 19.319969
    }
  },
  {
    "id": 3098865,
    "name": "Górażdże",
    "coord": {
      "lat": 50.52903,
      "lon": 18.010031
    }
  },
  {
    "id": 771842,
    "name": "Górki",
    "coord": {
      "lat": 49.643848,
      "lon": 22.043039
    }
  },
  {
    "id": 3098815,
    "name": "Górki Wielkie",
    "coord": {
      "lat": 49.779709,
      "lon": 18.831169
    }
  },
  {
    "id": 3098794,
    "name": "Górniki",
    "coord": {
      "lat": 50.392818,
      "lon": 18.79744
    }
  },
  {
    "id": 771788,
    "name": "Górno (świętokrzyskie)",
    "coord": {
      "lat": 50.84774,
      "lon": 20.82501
    }
  },
  {
    "id": 771790,
    "name": "Górno (podkarpackie)",
    "coord": {
      "lat": 50.282429,
      "lon": 22.145
    }
  },
  {
    "id": 771779,
    "name": "Górowo Iławeckie",
    "coord": {
      "lat": 54.285591,
      "lon": 20.488859
    }
  },
  {
    "id": 771733,
    "name": "Górzno (mazowieckie)",
    "coord": {
      "lat": 51.846809,
      "lon": 21.70933
    }
  },
  {
    "id": 3098727,
    "name": "Górzno (kujawsko-pomorskie)",
    "coord": {
      "lat": 53.197788,
      "lon": 19.643169
    }
  },
  {
    "id": 3098712,
    "name": "Górzyca",
    "coord": {
      "lat": 52.494469,
      "lon": 14.65503
    }
  },
  {
    "id": 771679,
    "name": "Gózd",
    "coord": {
      "lat": 51.378319,
      "lon": 21.379141
    }
  },
  {
    "id": 7533362,
    "name": "Gąbin",
    "coord": {
      "lat": 52.401199,
      "lon": 19.730801
    }
  },
  {
    "id": 3099473,
    "name": "Gąsawa",
    "coord": {
      "lat": 52.76757,
      "lon": 17.755791
    }
  },
  {
    "id": 772313,
    "name": "Gąsocin",
    "coord": {
      "lat": 52.737541,
      "lon": 20.7118
    }
  },
  {
    "id": 3099214,
    "name": "Głogoczów",
    "coord": {
      "lat": 49.89452,
      "lon": 19.8741
    }
  },
  {
    "id": 7532607,
    "name": "Głogów",
    "coord": {
      "lat": 51.669899,
      "lon": 16.0436
    }
  },
  {
    "id": 7533070,
    "name": "Głogów Małopolski",
    "coord": {
      "lat": 50.155998,
      "lon": 21.9587
    }
  },
  {
    "id": 3099209,
    "name": "Głogówek",
    "coord": {
      "lat": 50.35355,
      "lon": 17.86405
    }
  },
  {
    "id": 7532274,
    "name": "Głowno",
    "coord": {
      "lat": 51.962002,
      "lon": 19.714001
    }
  },
  {
    "id": 3099174,
    "name": "Głubczyce",
    "coord": {
      "lat": 50.200859,
      "lon": 17.828581
    }
  },
  {
    "id": 7532986,
    "name": "Głuchołazy",
    "coord": {
      "lat": 50.313702,
      "lon": 17.368401
    }
  },
  {
    "id": 772066,
    "name": "Głuchów (łódzkie)",
    "coord": {
      "lat": 51.779469,
      "lon": 20.07666
    }
  },
  {
    "id": 772069,
    "name": "Głuchów (podkarpackie)",
    "coord": {
      "lat": 50.081711,
      "lon": 22.271351
    }
  },
  {
    "id": 7533413,
    "name": "Głuszyca",
    "coord": {
      "lat": 50.688599,
      "lon": 16.3892
    }
  },
  {
    "id": 3099144,
    "name": "Głuszyca Górna",
    "coord": {
      "lat": 50.666061,
      "lon": 16.375851
    }
  },
  {
    "id": 3099192,
    "name": "Główczyce",
    "coord": {
      "lat": 54.61935,
      "lon": 17.372299
    }
  },
  {
    "id": 3099184,
    "name": "Główna",
    "coord": {
      "lat": 52.423321,
      "lon": 16.97394
    }
  },
  {
    "id": 7532221,
    "name": "Haczów",
    "coord": {
      "lat": 49.668701,
      "lon": 21.939699
    }
  },
  {
    "id": 7532457,
    "name": "Hajnówka",
    "coord": {
      "lat": 52.723598,
      "lon": 23.5665
    }
  },
  {
    "id": 771150,
    "name": "Halinów",
    "coord": {
      "lat": 52.228802,
      "lon": 21.355101
    }
  },
  {
    "id": 3098048,
    "name": "Hallerowo",
    "coord": {
      "lat": 54.798729,
      "lon": 18.40206
    }
  },
  {
    "id": 771141,
    "name": "Handzlówka",
    "coord": {
      "lat": 49.99527,
      "lon": 22.22311
    }
  },
  {
    "id": 771134,
    "name": "Harasiuki",
    "coord": {
      "lat": 50.475151,
      "lon": 22.472879
    }
  },
  {
    "id": 3098039,
    "name": "Harbutowice",
    "coord": {
      "lat": 49.812351,
      "lon": 19.780451
    }
  },
  {
    "id": 771139,
    "name": "Hańsk",
    "coord": {
      "lat": 51.412861,
      "lon": 23.39942
    }
  },
  {
    "id": 3098033,
    "name": "Hażlach",
    "coord": {
      "lat": 49.80714,
      "lon": 18.651779
    }
  },
  {
    "id": 7531384,
    "name": "Hel",
    "coord": {
      "lat": 54.636501,
      "lon": 18.774389
    }
  },
  {
    "id": 3098020,
    "name": "Helenówka",
    "coord": {
      "lat": 50.593498,
      "lon": 19.36342
    }
  },
  {
    "id": 3098015,
    "name": "Henryków",
    "coord": {
      "lat": 50.653271,
      "lon": 17.010269
    }
  },
  {
    "id": 3098007,
    "name": "Herby",
    "coord": {
      "lat": 50.753181,
      "lon": 18.88756
    }
  },
  {
    "id": 771001,
    "name": "Hornówek",
    "coord": {
      "lat": 52.286381,
      "lon": 20.80793
    }
  },
  {
    "id": 770996,
    "name": "Horodło",
    "coord": {
      "lat": 50.894588,
      "lon": 24.03723
    }
  },
  {
    "id": 770986,
    "name": "Horyniec-Zdrój",
    "coord": {
      "lat": 50.191521,
      "lon": 23.36277
    }
  },
  {
    "id": 7532209,
    "name": "Hrubieszów",
    "coord": {
      "lat": 50.806702,
      "lon": 23.8904
    }
  },
  {
    "id": 3097977,
    "name": "Hucisko",
    "coord": {
      "lat": 49.75111,
      "lon": 19.12188
    }
  },
  {
    "id": 770918,
    "name": "Humniska",
    "coord": {
      "lat": 49.675072,
      "lon": 22.05368
    }
  },
  {
    "id": 770911,
    "name": "Husów",
    "coord": {
      "lat": 49.97971,
      "lon": 22.286449
    }
  },
  {
    "id": 3097935,
    "name": "Huta Stara B",
    "coord": {
      "lat": 50.737919,
      "lon": 19.13295
    }
  },
  {
    "id": 770833,
    "name": "Hyżne",
    "coord": {
      "lat": 49.91769,
      "lon": 22.181311
    }
  },
  {
    "id": 3097886,
    "name": "Imielin",
    "coord": {
      "lat": 50.14534,
      "lon": 19.185989
    }
  },
  {
    "id": 770787,
    "name": "Imielno",
    "coord": {
      "lat": 50.58569,
      "lon": 20.44813
    }
  },
  {
    "id": 7532534,
    "name": "Inowrocław",
    "coord": {
      "lat": 52.781601,
      "lon": 18.249901
    }
  },
  {
    "id": 770784,
    "name": "Inowłódz",
    "coord": {
      "lat": 51.527168,
      "lon": 20.223
    }
  },
  {
    "id": 3097869,
    "name": "Inwałd",
    "coord": {
      "lat": 49.863548,
      "lon": 19.392759
    }
  },
  {
    "id": 3097865,
    "name": "Istebna",
    "coord": {
      "lat": 49.56319,
      "lon": 18.90567
    }
  },
  {
    "id": 770772,
    "name": "Iwaniska",
    "coord": {
      "lat": 50.731461,
      "lon": 21.2806
    }
  },
  {
    "id": 7532810,
    "name": "Iwanowice",
    "coord": {
      "lat": 50.227058,
      "lon": 19.963699
    }
  },
  {
    "id": 7531329,
    "name": "Iwierzyce",
    "coord": {
      "lat": 50.022961,
      "lon": 21.755119
    }
  },
  {
    "id": 7532674,
    "name": "Iwkowa",
    "coord": {
      "lat": 49.81736,
      "lon": 20.590651
    }
  },
  {
    "id": 7533293,
    "name": "Iwonicz-Zdrój",
    "coord": {
      "lat": 49.563,
      "lon": 21.785101
    }
  },
  {
    "id": 770754,
    "name": "Izabelin",
    "coord": {
      "lat": 52.395191,
      "lon": 21.058041
    }
  },
  {
    "id": 770751,
    "name": "Izbica",
    "coord": {
      "lat": 50.88728,
      "lon": 23.152479
    }
  },
  {
    "id": 3097841,
    "name": "Izbica Kujawska",
    "coord": {
      "lat": 52.420731,
      "lon": 18.762699
    }
  },
  {
    "id": 3097839,
    "name": "Izbicko",
    "coord": {
      "lat": 50.571629,
      "lon": 18.155849
    }
  },
  {
    "id": 3097833,
    "name": "Izdebnik",
    "coord": {
      "lat": 49.872181,
      "lon": 19.768009
    }
  },
  {
    "id": 7531498,
    "name": "Iława",
    "coord": {
      "lat": 53.596001,
      "lon": 19.559401
    }
  },
  {
    "id": 3097896,
    "name": "Iłowa",
    "coord": {
      "lat": 51.500599,
      "lon": 15.1998
    }
  },
  {
    "id": 7534560,
    "name": "Iłowo -Osada",
    "coord": {
      "lat": 53.168079,
      "lon": 20.29295
    }
  },
  {
    "id": 770798,
    "name": "Iłów",
    "coord": {
      "lat": 52.339531,
      "lon": 20.0273
    }
  },
  {
    "id": 770792,
    "name": "Iłża",
    "coord": {
      "lat": 51.163132,
      "lon": 21.23979
    }
  },
  {
    "id": 3097871,
    "name": "Ińsko",
    "coord": {
      "lat": 53.436131,
      "lon": 15.5502
    }
  },
  {
    "id": 770724,
    "name": "Jabłonica Polska",
    "coord": {
      "lat": 49.697842,
      "lon": 21.899611
    }
  },
  {
    "id": 770721,
    "name": "Jabłonka (podkarpackie)",
    "coord": {
      "lat": 49.694172,
      "lon": 22.11565
    }
  },
  {
    "id": 7531173,
    "name": "Jabłonka (małopolskie)",
    "coord": {
      "lat": 49.505051,
      "lon": 19.67219
    }
  },
  {
    "id": 770711,
    "name": "Jabłonna (lubelskie)",
    "coord": {
      "lat": 51.088749,
      "lon": 22.593639
    }
  },
  {
    "id": 3097813,
    "name": "Jabłonna (wielkopolskie)",
    "coord": {
      "lat": 52.205978,
      "lon": 16.207411
    }
  },
  {
    "id": 7531479,
    "name": "Jabłonna (mazowieckie)",
    "coord": {
      "lat": 52.39362,
      "lon": 20.870701
    }
  },
  {
    "id": 770705,
    "name": "Jabłonna Lacka",
    "coord": {
      "lat": 52.476639,
      "lon": 22.44228
    }
  },
  {
    "id": 3097808,
    "name": "Jabłonowo Pomorskie",
    "coord": {
      "lat": 53.391369,
      "lon": 19.15509
    }
  },
  {
    "id": 770731,
    "name": "Jabłoń",
    "coord": {
      "lat": 51.72501,
      "lon": 23.087429
    }
  },
  {
    "id": 770661,
    "name": "Jadowniki",
    "coord": {
      "lat": 49.958839,
      "lon": 20.644341
    }
  },
  {
    "id": 770659,
    "name": "Jadowniki Mokre",
    "coord": {
      "lat": 50.165459,
      "lon": 20.728451
    }
  },
  {
    "id": 770662,
    "name": "Jadów",
    "coord": {
      "lat": 52.478489,
      "lon": 21.63199
    }
  },
  {
    "id": 770647,
    "name": "Jagiełła",
    "coord": {
      "lat": 50.094601,
      "lon": 22.572611
    }
  },
  {
    "id": 770602,
    "name": "Jakubowice Murowane",
    "coord": {
      "lat": 51.26992,
      "lon": 22.63415
    }
  },
  {
    "id": 7531413,
    "name": "Jakubów",
    "coord": {
      "lat": 52.23954,
      "lon": 21.681141
    }
  },
  {
    "id": 7533087,
    "name": "Janikowo",
    "coord": {
      "lat": 52.756699,
      "lon": 18.111601
    }
  },
  {
    "id": 3097660,
    "name": "Jankowice",
    "coord": {
      "lat": 50.0009,
      "lon": 18.98901
    }
  },
  {
    "id": 3097651,
    "name": "Jankowice Rybnickie",
    "coord": {
      "lat": 50.044788,
      "lon": 18.54707
    }
  },
  {
    "id": 3097638,
    "name": "Janków Przygodzki",
    "coord": {
      "lat": 51.59808,
      "lon": 17.78824
    }
  },
  {
    "id": 770456,
    "name": "Janowice",
    "coord": {
      "lat": 49.891541,
      "lon": 20.860809
    }
  },
  {
    "id": 3097599,
    "name": "Janowice Wielkie",
    "coord": {
      "lat": 50.87569,
      "lon": 15.92322
    }
  },
  {
    "id": 770441,
    "name": "Janowiec",
    "coord": {
      "lat": 51.323589,
      "lon": 21.8894
    }
  },
  {
    "id": 3097594,
    "name": "Janowiec Wielkopolski",
    "coord": {
      "lat": 52.755829,
      "lon": 17.489811
    }
  },
  {
    "id": 3097561,
    "name": "Januszkowice",
    "coord": {
      "lat": 50.391891,
      "lon": 18.136801
    }
  },
  {
    "id": 770473,
    "name": "Janów",
    "coord": {
      "lat": 53.467468,
      "lon": 23.23052
    }
  },
  {
    "id": 7533529,
    "name": "Janów Lubelski",
    "coord": {
      "lat": 50.7006,
      "lon": 22.413601
    }
  },
  {
    "id": 770413,
    "name": "Janów Podlaski",
    "coord": {
      "lat": 52.193981,
      "lon": 23.212179
    }
  },
  {
    "id": 3097553,
    "name": "Jaraczewo",
    "coord": {
      "lat": 51.96854,
      "lon": 17.29707
    }
  },
  {
    "id": 770395,
    "name": "Jarczów",
    "coord": {
      "lat": 50.424381,
      "lon": 23.58576
    }
  },
  {
    "id": 770383,
    "name": "Jarocin (podkarpackie)",
    "coord": {
      "lat": 50.56459,
      "lon": 22.321211
    }
  },
  {
    "id": 7533024,
    "name": "Jarocin (wielkopolskie)",
    "coord": {
      "lat": 51.961498,
      "lon": 17.5075
    }
  },
  {
    "id": 3097504,
    "name": "Jaroszowice",
    "coord": {
      "lat": 49.862671,
      "lon": 19.519621
    }
  },
  {
    "id": 7532223,
    "name": "Jarosław",
    "coord": {
      "lat": 50.040001,
      "lon": 22.670401
    }
  },
  {
    "id": 770348,
    "name": "Jasienica (mazowieckie)",
    "coord": {
      "lat": 52.41415,
      "lon": 21.411501
    }
  },
  {
    "id": 3097472,
    "name": "Jasienica (śląskie)",
    "coord": {
      "lat": 49.813122,
      "lon": 18.921551
    }
  },
  {
    "id": 770346,
    "name": "Jasienica Rosielna",
    "coord": {
      "lat": 49.751438,
      "lon": 21.941759
    }
  },
  {
    "id": 770341,
    "name": "Jasieniec",
    "coord": {
      "lat": 51.821041,
      "lon": 20.94099
    }
  },
  {
    "id": 770357,
    "name": "Jasień (małopolskie)",
    "coord": {
      "lat": 49.969879,
      "lon": 20.571899
    }
  },
  {
    "id": 3097480,
    "name": "Jasień (lubuskie)",
    "coord": {
      "lat": 51.751419,
      "lon": 15.01419
    }
  },
  {
    "id": 770316,
    "name": "Jasionów",
    "coord": {
      "lat": 49.658409,
      "lon": 21.97678
    }
  },
  {
    "id": 7531426,
    "name": "Jastarnia",
    "coord": {
      "lat": 54.714771,
      "lon": 18.628441
    }
  },